[{"address":"900 BEACH ST","applicant":"Bay Area Dots, LLC","dayshours":"Mo-Su:6AM-12AM","expirationdate":"2018-03-15T00:00:00.000","fooditems":"Hot dogs: condiments: soft pretzels: soft drinks: coffee:cold beverages: pastries: bakery goods: cookies: icecream: candy: soups: churros: chestnuts: nuts: fresh fruit: fruit juices: desserts: potato chips and popcorn.","latitude":"37.8077432884455","longitude":"-122.42414994487"}
,{"address":"1389 UNDERWOOD AVE","applicant":"Liang Bai Ping","dayshours":"Mo-Fr:8AM-9AM","expirationdate":"2018-03-15T00:00:00.000","fooditems":"Cold Truck: Pre-packaged sandwiches: snacks: fruit: various beverages","latitude":"37.7271104333828","longitude":"-122.388261288144"}
,{"address":"567 BAY ST","applicant":"Bay Area Dots, LLC","dayshours":"Mo-Su:6AM-12AM","expirationdate":"2018-03-15T00:00:00.000","fooditems":"Hot dogs: condiments: soft pretzels: soft drinks: coffee: cold beverages: pastries: bakery goods: cookies: ice cream: candy: soups: churros: chestnuts: nuts: fresh fruit: fruit juices: desserts: potato chips and popcorn.","latitude":"0","longitude":"0"}
,{"address":"401 23RD ST","applicant":"BH & MT LLC","dayshours":"Mo-Fr:11AM-12PM","expirationdate":"2018-03-15T00:00:00.000","fooditems":"Cold Truck: Breakfast: Sandwiches: Salads: Pre-Packaged Snacks: Beverages","latitude":"37.7550307267667","longitude":"-122.384530734223"}
,{"address":"170 OTIS ST","applicant":"BH & MT LLC","dayshours":"Mo-Fr:6AM-9AM/11AM-3PM","expirationdate":"2018-03-15T00:00:00.000","fooditems":"Cold Truck: Breakfast: Sandwiches: Salads: Pre-Packaged Snacks: Beverages","latitude":"0","longitude":"0"}
,{"address":"934 BRANNAN ST","applicant":"Subs on Hubs","dayshours":"Mo/Tu/We/Th:11AM-6PM","expirationdate":"2018-03-15T00:00:00.000","fooditems":"Italian subs: Cuban sandwich: Gyro","latitude":"37.7711790005481","longitude":"-122.406573673429"}
,{"address":"400 05TH ST","applicant":"Subs on Hubs","dayshours":"Sa-Su:12AM-2AM;Fr/Sa:11PM-12AM","expirationdate":"2018-03-15T00:00:00.000","fooditems":"Italian subs: Cuban sandwich: Gyro","latitude":"37.7787103919009","longitude":"-122.40183935033"}
,{"address":"333 08TH ST","applicant":"Subs on Hubs","dayshours":"Th/Fr:12AM-2AM;We/Th:11PM-12AM","expirationdate":"2018-03-15T00:00:00.000","fooditems":"Italian subs: Cuban sandwich: Gyro","latitude":"37.7749754998217","longitude":"-122.409385823194"}
,{"address":"Assessors Block /Lot","applicant":"Paradise Catering","dayshours":"Mo-Fr:10AM-11AM","expirationdate":"2018-03-15T00:00:00.000","fooditems":"Cold Truck: Sandwiches: snacks: prepackaged items: beverages:","latitude":"0","longitude":"0"}
,{"address":"Assessors Block 8711/Lot021","applicant":"Subs on Hubs","dayshours":"Sa-Su:11AM-10PM;Mo-Fr:6PM-8PM","expirationdate":"2018-03-15T00:00:00.000","fooditems":"Italian subs: Cuban sandwich: Gyro","latitude":"37.7714019465879","longitude":"-122.391771646847"}
,{"address":"225 BATTERY ST","applicant":"Roadside Rotisserie Corporation / Country Grill","dayshours":"Mo/We/Fr:9AM-3PM","expirationdate":"2018-03-15T00:00:00.000","fooditems":"Rotisserie Chicken; Ribs; Pork Loin; Roasted Potatoes; Chicken Wrap; Kale Salad; Drinks","latitude":"37.7934465278161","longitude":"-122.400343675592"}
,{"address":"701 16TH ST","applicant":"Mini Mobile Food Catering","dayshours":"Mo-Fr:10AM-11AM/12PM-1PM","expirationdate":"2018-03-15T00:00:00.000","fooditems":"Cold Truck: Corn Dogs: Noodle Soups: Candy: Pre-packaged Snacks: Sandwiches: Chips: Coffee: Tea: Various Beverages","latitude":"0","longitude":"0"}
,{"address":"Assessors Block 4058/Lot010","applicant":"Natan's Catering","expirationdate":"2018-03-15T00:00:00.000","fooditems":"Burgers: melts: hot dogs: burritos:sandwiches: fries: onion rings: drinks","latitude":"37.7611829945051","longitude":"-122.388118704077"}
,{"address":"401 HARRISON ST","applicant":"Mini Mobile Food Catering","dayshours":"Mo-Fr:10AM-11AM","expirationdate":"2018-03-15T00:00:00.000","fooditems":"Cold Truck: Corn Dogs: Noodle Soups: Candy: Pre-packaged Snacks: Sandwiches: Chips: Coffee: Tea: Various Beverages","latitude":"0","longitude":"0"}
,{"address":"2445 MISSION ST","applicant":"Julie's Hot Dogs","dayshours":"Su/Fr/Sa:12AM-3AM;Th/Fr/Sa:10PM-12AM","expirationdate":"2018-03-15T00:00:00.000","fooditems":"Hot dogs: Bacon wrapped hot dogs: soda: water: sports drinks: energy drinks: chips","latitude":"37.7579385207419","longitude":"-122.418630583281"}
,{"address":"654 MISSION ST","applicant":"Casey's Pizza, LLC","dayshours":"Fr:11AM-3PM","expirationdate":"2018-03-15T00:00:00.000","fooditems":"Artisan Pizzas (Margherita: Yukon Potato: Zoe's Pepperoni: Funghi: Brocolli Rabe: Bacon Kale:  Arugula) and Drinks.","latitude":"37.7871828477154","longitude":"-122.401234808851"}
,{"address":"100 SPEAR ST","applicant":"Casey's Pizza, LLC","dayshours":"Tu/Th:9AM-3PM","expirationdate":"2018-03-15T00:00:00.000","fooditems":"Artisan Pizzas (Margherita: Yukon Potato: Zoe's Pepperoni: Funghi: Brocolli Rabe: Bacon Kale:  Arugula) and Drinks.","latitude":"37.7921505484817","longitude":"-122.393999974059"}
,{"address":"1 POST ST","applicant":"Casey's Pizza, LLC","dayshours":"Sa:12PM-4PM;Tu/We/Th:3PM-8PM","expirationdate":"2018-03-15T00:00:00.000","fooditems":"Artisan Pizzas (Margherita: Yukon Potato: Zoe's Pepperoni: Funghi: Brocolli Rabe: Bacon Kale:  Arugula) and Drinks.","latitude":"37.788778723378","longitude":"-122.402574568411"}
,{"address":"231 SANSOME ST","applicant":"Casey's Pizza, LLC","dayshours":"Mo/We:10AM-2PM","expirationdate":"2018-03-15T00:00:00.000","fooditems":"Artisan Pizzas (Margherita: Yukon Potato: Zoe's Pepperoni: Funghi: Brocolli Rabe: Bacon Kale:  Arugula) and Drinks.","latitude":"37.792609401119","longitude":"-122.401314905451"}
,{"address":"368 FELL ST","applicant":"Casey's Pizza, LLC","dayshours":"Su:12PM-8PM;Fr:3PM-8PM;Sa:4PM-8PM","expirationdate":"2018-03-15T00:00:00.000","fooditems":"Artisan Pizzas (Margherita: Yukon Potato: Zoe's Pepperoni: Funghi: Brocolli Rabe: Bacon Kale:  Arugula) and Drinks.","latitude":"37.7760487080922","longitude":"-122.423939211172"}
,{"address":"491 BAY SHORE BLVD","applicant":"Mini Mobile Food Catering","dayshours":"Mo-Fr:10AM-1PM","expirationdate":"2018-03-15T00:00:00.000","fooditems":"Cold Truck: Corn Dogs: Noodle Soups: Candy: Pre-packaged Snacks: Sandwiches: Chips: Coffee: Tea: Various Beverages","latitude":"0","longitude":"0"}
,{"address":"1 FRONT ST","applicant":"Halal Cart, LLC","dayshours":"Mo-We:6AM-6PM","expirationdate":"2018-03-15T00:00:00.000","fooditems":"Chicken; Lamb; Kabobs; Rice","latitude":"37.7917572059444","longitude":"-122.398897636892"}
,{"address":"532 MARKET ST","applicant":"Halal Cart, LLC","dayshours":"Th/Fr/Sa:6AM-6PM","expirationdate":"2018-03-15T00:00:00.000","fooditems":"Chicken; Lamb; Kabobs; Rice","latitude":"37.7905483181832","longitude":"-122.400333673679"}
,{"address":"516 TOWNSEND ST","applicant":"Two G's Catering","dayshours":"Mo-Fr:8AM-9AM","expirationdate":"2018-03-15T00:00:00.000","fooditems":"Cold Truck: Hot & Cold Sandwiches: Bagels: Burritos: Soups: Hot Dogs: Tacos: Pork Buns: BBQ Meat: Fruit: Various Beverages: Pasties: Pre-Packaged Snacks: Candy: Salads: Muffins: Scones: Brownies: Croissants: Energy Bars: Noodle Bowls","latitude":"37.7734452149215","longitude":"-122.400482576546"}
,{"address":"1601 MARIPOSA ST","applicant":"Sanguchon","dayshours":"Sa:11AM-4PM","expirationdate":"2018-03-15T00:00:00.000","fooditems":"Peruvian Food","latitude":"0","longitude":"0"}
,{"address":"2020 EVANS AVE","applicant":"Park's Catering","dayshours":"Mo-Fr:8AM-9AM","expirationdate":"2018-03-15T00:00:00.000","fooditems":"Cold Truck: Hamburger: cheeseburgers: hot dogs: hot sandwiches: cold sandwiches: egg muffins: cup of noodles: corn dogs: canned soup: coffee: hot cocoa: hot tea: gatorade: juice: milk: soda: water: fruits: fruit salad: rice pudding: yogurt: candy bars: chips: cookies: donuts: granola bars: muffins","latitude":"0","longitude":"0"}
,{"address":"1275 MINNESOTA ST","applicant":"F & C Catering","dayshours":"Mo-Fr:9AM-10AM","expirationdate":"2018-03-15T00:00:00.000","fooditems":"Cold Truck: Hot/Cold Sandwiches: Water: Soda: Juice: Snacks: Milk: Candies: Canned Food: Soups: Cup of Noodles: Fruit: Salad","latitude":"37.7542517088937","longitude":"-122.38938122888"}
,{"address":"860 02ND ST","applicant":"Steve's Mobile Deli","dayshours":"Mo-Fr:6AM-7AM/11AM-12PM","expirationdate":"2018-03-15T00:00:00.000","fooditems":"Cold Truck: Pre-packaged sandwiches: Burgers: Hot Dogs: Muffin Sandwiches: Enchiladas: Bagels: Burritos: Salads: Snacks: Beverages","latitude":"0","longitude":"0"}
,{"address":"Assessors Block /Lot","applicant":"F & C Catering","dayshours":"Mo-Fr:12PM-1PM","expirationdate":"2018-03-15T00:00:00.000","fooditems":"Cold Truck: Hot/Cold Sandwiches: Water: Soda: Juice: Snacks: Milk: Candies: Canned Food: Soups: Cup of Noodles: Fruit: Salad","latitude":"0","longitude":"0"}
,{"address":"900 MINNESOTA ST","applicant":"F & C Catering","dayshours":"Mo-Fr:10AM-11AM","expirationdate":"2018-03-15T00:00:00.000","fooditems":"Cold Truck: Hot/Cold Sandwiches: Water: Soda: Juice: Snacks: Milk: Candies: Canned Food: Soups: Cup of Noodles: Fruit: Salad","latitude":"0","longitude":"0"}
,{"address":"2045 EVANS AVE","applicant":"Eva's Catering","dayshours":"Su:10AM-2PM","expirationdate":"2018-03-15T00:00:00.000","fooditems":"Cold Truck: Burrito: Corn Dog: Salads: Sandwiches: Quesadilla: Tacos: Fried Rice: Cow Mein: Chinese Rice: Noodle Plates: Soup: Bacon: Eggs: Ham: Avacado: Sausages: Beverages","latitude":"37.7477720916075","longitude":"-122.397031718978"}
,{"address":"151 EXECUTIVE PARK BLVD","applicant":"Quan Catering","dayshours":"Mo-Fr:9AM-10AM/11AM-12PM","expirationdate":"2018-03-15T00:00:00.000","fooditems":"Cold Truck: Soft drinks: cup cakes: potato chips: cookies: gum: sandwiches (hot & cold): peanuts: muffins: coff (hot & cold): water: juice: yoplait: milk: orange juice: sunflower seeds: can foods: burritos: buscuits: chimichangas: rice krispies","latitude":"0","longitude":"0"}
,{"address":"491 BAY SHORE BLVD","applicant":"San Pancho's Tacos","dayshours":"Mo/Tu/We/Th/Fr:6AM-10PM","expirationdate":"2018-03-15T00:00:00.000","fooditems":"Tacos: Burritos: Quesadillas: Tortas: Nachos: Hot Dogs:Soda: Water: Fruit Drinks","latitude":"0","longitude":"0"}
,{"address":"145 KING ST","applicant":"Steve's Mobile Deli","dayshours":"Mo-Fr:9AM-10AM/12PM-1PM","expirationdate":"2018-03-15T00:00:00.000","fooditems":"Cold Truck: Pre-packaged sandwiches: Burgers: Hot Dogs: Muffin Sandwiches: Enchiladas: Bagels: Burritos: Salads: Snacks: Beverages","latitude":"0","longitude":"0"}
,{"address":"101 EXECUTIVE PARK BLVD","applicant":"Golden Catering","dayshours":"Mo-Su:10AM-11AM","expirationdate":"2018-03-15T00:00:00.000","fooditems":"Cold Truck: Pre-packaged Sandwiches: Various Beverages: Salads: Snacks","latitude":"0","longitude":"0"}
,{"address":"575 HARRISON ST","applicant":"Paradise Catering","dayshours":"Mo-Fr:9AM-10AM","expirationdate":"2018-03-15T00:00:00.000","fooditems":"Cold Truck: Sandwiches: snacks: prepackaged items: beverages:","latitude":"37.7844204919929","longitude":"-122.394380639101"}
,{"address":"1 POST ST","applicant":"Roadside Rotisserie Corporation / Country Grill","dayshours":"Tu/Th/Fr:6PM-8PM","expirationdate":"2018-03-15T00:00:00.000","fooditems":"Rotisserie chicken: pork loin: ribs: chicken salad wrap: potatoes: roasted seasonal vegetables kale salad: beverages.","latitude":"37.788778723378","longitude":"-122.402574568411"}
,{"address":"2085 03RD ST","applicant":"Anas Goodies Catering","dayshours":"Mo-Fr:7AM-8AM","expirationdate":"2018-03-15T00:00:00.000","fooditems":"Cold Truck: Sandwiches: Noodles:  Pre-packaged Snacks: Candy: Desserts Various Beverages","latitude":"37.7632990560446","longitude":"-122.388482306805"}
,{"address":"3433 03RD ST","applicant":"Quan Catering","dayshours":"Mo-Fr:8AM-9AM/11AM-12PM","expirationdate":"2018-03-15T00:00:00.000","fooditems":"Cold Truck: Soft drinks: cup cakes: potato chips: cookies: gum: sandwiches (hot & cold): peanuts: muffins: coff (hot & cold): water: juice: yoplait: milk: orange juice: sunflower seeds: can foods: burritos: buscuits: chimichangas: rice krispies","latitude":"0","longitude":"0"}
,{"address":"2800 03RD ST","applicant":"F & C Catering","dayshours":"Mo-Fr:10AM-11AM","expirationdate":"2018-03-15T00:00:00.000","fooditems":"Cold Truck: Hot/Cold Sandwiches: Water: Soda: Juice: Snacks: Milk: Candies: Canned Food: Soups: Cup of Noodles: Fruit: Salad","latitude":"37.7537174169021","longitude":"-122.388359021044"}
,{"address":"1 MARKET ST","applicant":"Halal Cart of San Francisco","dayshours":"Mo/We:10AM-4PM","expirationdate":"2018-03-15T00:00:00.000","fooditems":"Halal Gyro over Rice: Halal Chicken over Rice: Halal Gyro: and Chicken Sandwich","latitude":"37.7938715071506","longitude":"-122.394865238621"}
,{"address":"1830 HARRISON ST","applicant":"John's Catering #5","dayshours":"Mo-Fr:2PM-3PM","expirationdate":"2018-03-15T00:00:00.000","fooditems":"Cold Truck: Soda:Chips:Candy: Cold/Hot Sandwiches: Donuts.  (Pitco Wholesale)","latitude":"37.7679845948645","longitude":"-122.413953822522"}
,{"address":"180 REDWOOD ST","applicant":"John's Catering #5","dayshours":"Mo-Fr:9AM-10AM","expirationdate":"2018-03-15T00:00:00.000","fooditems":"Cold Truck: Soda:Chips:Candy: Cold/Hot Sandwiches: Donuts.  (Pitco Wholesale)","latitude":"37.7808315769119","longitude":"-122.419942864682"}
,{"address":"1455 MARKET ST","applicant":"Bay Area Mobile Catering, Inc. dba. Taqueria Angelica's","dayshours":"Mo/Tu/We/Th/Fr:7AM-6PM","expirationdate":"2018-03-15T00:00:00.000","fooditems":"Tacos: burritos: soda & juice","latitude":"37.775228307834","longitude":"-122.41746613187"}
,{"address":"501 02ND ST","applicant":"Linda's Catering","dayshours":"Mo-Fr:10AM-12PM","expirationdate":"2018-03-15T00:00:00.000","fooditems":"Hot Dogs: Hamburgers: Nachos: Steaks: Pastas: Asian Dishes: Tri-Tip Sandwiches: Sodas & Water","latitude":"37.7831711043434","longitude":"-122.392901049479"}
,{"address":"1265 THOMAS AVE","applicant":"Liang Bai Ping","dayshours":"Mo-Fr:11AM-12PM","expirationdate":"2018-03-15T00:00:00.000","fooditems":"Cold Truck: Pre-packaged sandwiches: snacks: fruit: various beverages","latitude":"37.7267096753687","longitude":"-122.385294691187"}
,{"address":"251 GEARY ST","applicant":"San Francisco Carts & Concessions, Inc. DBA Stanley's Steamers Hot Dogs","dayshours":"Mo-Su:6AM-12AM","expirationdate":"2018-03-15T00:00:00.000","fooditems":"Hot dogs: condiments: soft pretzels: soft drinks: coffee: cold beverages: pastries: bakery goods: cookies: ice cream: candy: soups: churros: chestnuts: nuts: fresh fruit: fruit juices: desserts: potato chips and popcorn.","latitude":"37.7871762917416","longitude":"-122.407398075958"}
,{"address":"2201 VALLEJO ST","applicant":"D & T Catering","dayshours":"Mo-Fr:10AM-11AM","expirationdate":"2018-03-15T00:00:00.000","fooditems":"Cold Truck: Pre-packaged sandwiches: Chicken Bake: Canned Soup: Chili Dog: Corn Dog: Cup of Noodles: Egg Muffins: Hamburgers: Cheeseburgers: Hot Dog: Hot sandwiches: quesadillas: Beverages: Flan: Fruits: Yogurt: Candy: Cookies: Chips: Donuts: Snacks","latitude":"0","longitude":"0"}
,{"address":"225 BUSH ST","applicant":"Curry Up Now","dayshours":"Mo-Fr:11AM-2PM","expirationdate":"2018-03-15T00:00:00.000","fooditems":"Chicken Tiki Masala Burritos: Paneer Tiki Masala Burritos: Samosas: Mango Lassi","latitude":"37.7908384194517","longitude":"-122.401160370299"}
,{"address":"1 BUSH ST","applicant":"Roadside Rotisserie Corporation / Country Grill","dayshours":"Mo/We/Fr:9AM-3PM","expirationdate":"2018-03-15T00:00:00.000","fooditems":"Rotisserie Chicken: Ribs: Kickass Salad: Potatos w/fat dripping: chicken wrap.","latitude":"37.7909215072692","longitude":"-122.400100423738"}
,{"address":"3253 16TH ST","applicant":"BH & MT LLC","dayshours":"Mo-Fr:10AM-11AM","expirationdate":"2018-03-15T00:00:00.000","fooditems":"Cold Truck: Breakfast: Sandwiches: Salads: Pre-Packaged Snacks: Beverages","latitude":"37.7644595214424","longitude":"-122.425161376358"}
,{"address":"1650 03RD ST","applicant":"Natan's Catering","expirationdate":"2018-03-15T00:00:00.000","fooditems":"Burgers: melts: hot dogs: burritos:sandwiches: fries: onion rings: drinks","latitude":"37.7691244121681","longitude":"-122.391474911246"}
,{"address":"1040 MARIPOSA ST","applicant":"Anas Goodies Catering","dayshours":"Mo-Fr:11AM-12PM","expirationdate":"2018-03-15T00:00:00.000","fooditems":"Cold Truck: Sandwiches: Noodles:  Pre-packaged Snacks: Candy: Desserts Various Beverages","latitude":"37.7642023783019","longitude":"-122.39428524234"}
,{"address":"401 CALIFORNIA ST","applicant":"Philz Coffee Truck","dayshours":"Tu/We/Th:6AM-3PM","expirationdate":"2018-03-15T00:00:00.000","fooditems":"Hot coffee: iced coffee: hot chocolate: tea: pastries","latitude":"37.7927957415787","longitude":"-122.401353280931"}
,{"address":"1145 REVERE AVE","applicant":"Liang Bai Ping","dayshours":"Mo-Fr:7AM-8AM","expirationdate":"2018-03-15T00:00:00.000","fooditems":"Cold Truck: Pre-packaged sandwiches: snacks: fruit: various beverages","latitude":"37.7265904795194","longitude":"-122.381752211406"}
,{"address":"1180 THOMAS AVE","applicant":"Liang Bai Ping","dayshours":"Mo-Fr:8AM-9AM","expirationdate":"2018-03-15T00:00:00.000","fooditems":"Cold Truck: Pre-packaged sandwiches: snacks: fruit: various beverages","latitude":"37.726125239645","longitude":"-122.383199327239"}
,{"address":"2323 CESAR CHAVEZ ST","applicant":"Mike's Catering","dayshours":"Mo-Fr:7AM-8AM","expirationdate":"2018-03-15T00:00:00.000","fooditems":"Cold Truck: packaged sandwiches: snacks: candy: hot and cold drinks","latitude":"37.7488013777145","longitude":"-122.400552458785"}
,{"address":"85 02ND ST","applicant":"El Calamar Perubian Food Truck","dayshours":"Tu/We/Th:10AM-3PM","expirationdate":"2018-03-15T00:00:00.000","fooditems":"Lomo Saltado: Jalea: Ceviche: Calamar: Tilapia plate: chicken special. Soda: Water.","latitude":"37.7884570288289","longitude":"-122.399884160566"}
,{"address":"870 MARKET ST","applicant":"Creme Brulee To Go","dayshours":"Mo-Fr:8AM-7PM;Sa-Su:11AM-7PM","expirationdate":"2018-03-15T00:00:00.000","fooditems":"Kettle Corn: Pizza: Coffee: Lattes: Cappuchino: Expresso: Hot Tea","latitude":"37.7851109204478","longitude":"-122.407422668277"}
,{"address":"2970 BROADWAY","applicant":"D & T Catering","dayshours":"Mo-Fr:10AM-11AM","expirationdate":"2018-03-15T00:00:00.000","fooditems":"Cold Truck: Pre-packaged sandwiches: Chicken Bake: Canned Soup: Chili Dog: Corn Dog: Cup of Noodles: Egg Muffins: Hamburgers: Cheeseburgers: Hot Dog: Hot sandwiches: quesadillas: Beverages: Flan: Fruits: Yogurt: Candy: Cookies: Chips: Donuts: Snacks","latitude":"37.7931766386244","longitude":"-122.446061864659"}
,{"address":"1570 BURKE AVE","applicant":"Park's Catering","dayshours":"Mo-Fr:7AM-8AM/10AM-11AM/12PM-1PM","expirationdate":"2018-03-15T00:00:00.000","fooditems":"Cold Truck: Hamburger: cheeseburgers: hot dogs: hot sandwiches: cold sandwiches: egg muffins: cup of noodles: corn dogs: canned soup: coffee: hot cocoa: hot tea: gatorade: juice: milk: soda: water: fruits: fruit salad: rice pudding: yogurt: candy bars: chips: cookies: donuts: granola bars: muffins","latitude":"37.7447521916164","longitude":"-122.385679248721"}
,{"address":"Assessors Block 5369/Lot003","applicant":"Natan's Catering","expirationdate":"2018-03-15T00:00:00.000","fooditems":"Burgers: melts: hot dogs: burritos:sandwiches: fries: onion rings: drinks","latitude":"37.7381177715919","longitude":"-122.404418467212"}
,{"address":"840 BRANNAN ST","applicant":"Two G's Catering","dayshours":"Mo-Fr:8AM-9AM","expirationdate":"2018-03-15T00:00:00.000","fooditems":"Cold Truck: Hot & Cold Sandwiches: Bagels: Burritos: Soups: Hot Dogs: Tacos: Pork Buns: BBQ Meat: Fruit: Various Beverages: Pasties: Pre-Packaged Snacks: Candy: Salads: Muffins: Scones: Brownies: Croissants: Energy Bars: Noodle Bowls","latitude":"37.772561689774","longitude":"-122.404474024011"}
,{"address":"1430 YOSEMITE AVE","applicant":"Liang Bai Ping","dayshours":"Mo-Fr:12PM-1PM","expirationdate":"2018-03-15T00:00:00.000","fooditems":"Cold Truck: Pre-packaged sandwiches: snacks: fruit: various beverages","latitude":"37.7254980479505","longitude":"-122.388369150442"}
,{"address":"1255 22ND ST","applicant":"Anas Goodies Catering","dayshours":"Mo-Fr:12PM-1PM","expirationdate":"2018-03-15T00:00:00.000","fooditems":"Cold Truck: Sandwiches: Noodles:  Pre-packaged Snacks: Candy: Desserts Various Beverages","latitude":"37.7570155244597","longitude":"-122.394062947116"}
,{"address":"150 OTIS ST","applicant":"Anas Goodies Catering","dayshours":"Mo-Fr:10AM-11AM","expirationdate":"2018-03-15T00:00:00.000","fooditems":"Cold Truck: Sandwiches: Noodles:  Pre-packaged Snacks: Candy: Desserts Various Beverages","latitude":"37.7706833950426","longitude":"-122.420879561399"}
,{"address":"2301 MISSION ST","applicant":"Leo's Hot Dogs","dayshours":"Mo-Su:6PM-12AM","expirationdate":"2018-03-15T00:00:00.000","fooditems":"Hot dogs and related toppings: non alcoholic beverages","latitude":"37.760086931987","longitude":"-122.418806481101"}
,{"address":"1300 GRIFFITH ST","applicant":"Liang Bai Ping","dayshours":"Mo-Fr:6AM-7AM","expirationdate":"2018-03-15T00:00:00.000","fooditems":"Cold Truck: Pre-packaged sandwiches: snacks: fruit: various beverages","latitude":"37.7270866339514","longitude":"-122.381074448749"}
,{"address":"2323 CESAR CHAVEZ ST","applicant":"Park's Catering","dayshours":"Mo-Fr:6AM-8AM","expirationdate":"2018-03-15T00:00:00.000","fooditems":"Cold Truck: Hamburger: cheeseburgers: hot dogs: hot sandwiches: cold sandwiches: egg muffins: cup of noodles: corn dogs: canned soup: coffee: hot cocoa: hot tea: gatorade: juice: milk: soda: water: fruits: fruit salad: rice pudding: yogurt: candy bars: chips: cookies: donuts: granola bars: muffins","latitude":"37.7488013777145","longitude":"-122.400552458785"}
,{"address":"950 HARRISON ST","applicant":"Natan's Catering","expirationdate":"2018-03-15T00:00:00.000","fooditems":"Burgers: melts: hot dogs: burritos:sandwiches: fries: onion rings: drinks","latitude":"37.7783886157866","longitude":"-122.403191783229"}
,{"address":"555 CALIFORNIA ST","applicant":"John's Catering #5","dayshours":"Mo-Fr:7AM-8AM","expirationdate":"2018-03-15T00:00:00.000","fooditems":"Cold Truck: Soda:Chips:Candy: Cold/Hot Sandwiches: Donuts.  (Pitco Wholesale)","latitude":"37.7922616341775","longitude":"-122.403485955391"}
,{"address":"2200 HAYES ST","applicant":"John's Catering #5","dayshours":"Mo-Fr:11AM-2PM","expirationdate":"2018-03-15T00:00:00.000","fooditems":"Cold Truck: Soda:Chips:Candy: Cold/Hot Sandwiches: Donuts.  (Pitco Wholesale)","latitude":"0","longitude":"0"}
,{"address":"435 CHINA BASIN ST","applicant":"Mike's Catering","dayshours":"Mo-Fr:11AM-1PM","expirationdate":"2018-03-15T00:00:00.000","fooditems":"Cold Truck: packaged sandwiches: snacks: candy: hot and cold drinks","latitude":"0","longitude":"0"}
,{"address":"Assessors Block /Lot","applicant":"Liang Bai Ping","dayshours":"Mo/Mo/Mo/Mo/Mo:5AM-6AM/11AM-12PM","expirationdate":"2018-03-15T00:00:00.000","fooditems":"Cold Truck: Pre-packaged sandwiches: snacks: fruit: various beverages","latitude":"0","longitude":"0"}
,{"address":"2200 OFARRELL ST","applicant":"Liang Bai Ping","dayshours":"Mo-Fr:12PM-1PM","expirationdate":"2018-03-15T00:00:00.000","fooditems":"Cold Truck: Pre-packaged sandwiches: snacks: fruit: various beverages","latitude":"0","longitude":"0"}
,{"address":"409 ILLINOIS ST","applicant":"Mike's Catering","dayshours":"Mo-Fr:11AM-1PM","expirationdate":"2018-03-15T00:00:00.000","fooditems":"Cold Truck: packaged sandwiches: snacks: candy: hot and cold drinks","latitude":"0","longitude":"0"}
,{"address":"2940 PACIFIC AVE","applicant":"D & T Catering","dayshours":"Mo-Fr:9AM-10AM","expirationdate":"2018-03-15T00:00:00.000","fooditems":"Cold Truck: Pre-packaged sandwiches: Chicken Bake: Canned Soup: Chili Dog: Corn Dog: Cup of Noodles: Egg Muffins: Hamburgers: Cheeseburgers: Hot Dog: Hot sandwiches: quesadillas: Beverages: Flan: Fruits: Yogurt: Candy: Cookies: Chips: Donuts: Snacks","latitude":"37.792385444513","longitude":"-122.443991509437"}
,{"address":"3201 03RD ST","applicant":"Natan's Catering","expirationdate":"2018-03-15T00:00:00.000","fooditems":"Burgers: melts: hot dogs: burritos:sandwiches: fries: onion rings: drinks","latitude":"37.7484453388377","longitude":"-122.38687903198"}
,{"address":"400 HOWARD ST","applicant":"JapaCurry","dayshours":"Tu/We/Th:11AM-2PM","expirationdate":"2018-03-15T00:00:00.000","fooditems":"Katsu Curry: KUROBUTA Sausage Curry: Vegetable Curry: Veggie Croquette Curry: Chicken NANBAN Bento: Nori Bento: water: soda: green tea","latitude":"37.7891192076677","longitude":"-122.395881039335"}
,{"address":"2920 03RD ST","applicant":"Quan Catering","dayshours":"Mo-Fr:9AM-10AM","expirationdate":"2018-03-15T00:00:00.000","fooditems":"Cold Truck: Soft drinks: cup cakes: potato chips: cookies: gum: sandwiches (hot & cold): peanuts: muffins: coff (hot & cold): water: juice: yoplait: milk: orange juice: sunflower seeds: can foods: burritos: buscuits: chimichangas: rice krispies","latitude":"37.7519716288769","longitude":"-122.387965483801"}
,{"address":"350 KANSAS ST","applicant":"Natan's Catering","expirationdate":"2018-03-15T00:00:00.000","fooditems":"Burgers: melts: hot dogs: burritos:sandwiches: fries: onion rings: drinks","latitude":"37.7653706693171","longitude":"-122.403907848212"}
,{"address":"1300 POLK ST","applicant":"The Huge Hotdog Concession","dayshours":"Su/Fr/Sa:8PM-2AM","expirationdate":"2018-03-15T00:00:00.000","fooditems":"Hotdogs: chips: soda: nuts: crackers","latitude":"37.7888771172666","longitude":"-122.420091020038"}
,{"address":"444 TOWNSEND ST","applicant":"F & C Catering","dayshours":"Mo-Fr:10AM-11AM","expirationdate":"2018-03-15T00:00:00.000","fooditems":"Cold Truck: Hot/Cold Sandwiches: Water: Soda: Juice: Snacks: Milk: Candies: Canned Food: Soups: Cup of Noodles: Fruit: Salad","latitude":"37.7748713162388","longitude":"-122.398531708276"}
,{"address":"835 JAMESTOWN AVE","applicant":"Golden Catering","dayshours":"Mo-Su:10AM-11AM","expirationdate":"2018-03-15T00:00:00.000","fooditems":"Cold Truck: Pre-packaged Sandwiches: Various Beverages: Salads: Snacks","latitude":"37.7171741618036","longitude":"-122.392222474624"}
,{"address":"1150 FRANCISCO ST","applicant":"D & T Catering","dayshours":"Mo-Fr:12PM-1PM","expirationdate":"2018-03-15T00:00:00.000","fooditems":"Cold Truck: Pre-packaged sandwiches: Chicken Bake: Canned Soup: Chili Dog: Corn Dog: Cup of Noodles: Egg Muffins: Hamburgers: Cheeseburgers: Hot Dog: Hot sandwiches: quesadillas: Beverages: Flan: Fruits: Yogurt: Candy: Cookies: Chips: Donuts: Snacks","latitude":"37.8037902440403","longitude":"-122.424145174983"}
,{"address":"531 BAY SHORE BLVD","applicant":"La Jefa","dayshours":"Mo-Su:7AM-8PM","expirationdate":"2018-03-15T00:00:00.000","fooditems":"Tacos: burritos: quesadillas: tortas: nachos (refried beans: cheese sauce: salsa fresca): carnes (beef: chicken: marinated pork: fried pork): canned beans: rice: sodas: horchata drinks.","latitude":"37.7387268039871","longitude":"-122.406736029905"}
,{"address":"200 LARKIN ST","applicant":"Hiyaaa","dayshours":"We/Th:9AM-3PM","expirationdate":"2018-03-15T00:00:00.000","fooditems":"Korean Fried Chicken","latitude":"37.7802154802881","longitude":"-122.416025770151"}
,{"address":"1127 SHAFTER AVE","applicant":"Liang Bai Ping","dayshours":"Mo-Fr:8AM-9AM","expirationdate":"2018-03-15T00:00:00.000","fooditems":"Cold Truck: Pre-packaged sandwiches: snacks: fruit: various beverages","latitude":"37.7259455580465","longitude":"-122.382281153253"}
,{"address":"2521 SCOTT ST","applicant":"D & T Catering","dayshours":"Mo-Fr:9AM-10AM","expirationdate":"2018-03-15T00:00:00.000","fooditems":"Cold Truck: Pre-packaged sandwiches: Chicken Bake: Canned Soup: Chili Dog: Corn Dog: Cup of Noodles: Egg Muffins: Hamburgers: Cheeseburgers: Hot Dog: Hot sandwiches: quesadillas: Beverages: Flan: Fruits: Yogurt: Candy: Cookies: Chips: Donuts: Snacks","latitude":"37.7933225090245","longitude":"-122.440119274474"}
,{"address":"1575 BURKE AVE","applicant":"Quan Catering","expirationdate":"2018-03-15T00:00:00.000","fooditems":"Cold Truck: Soft drinks: cup cakes: potato chips: cookies: gum: sandwiches (hot & cold): peanuts: muffins: coff (hot & cold): water: juice: yoplait: milk: orange juice: sunflower seeds: can foods: burritos: buscuits: chimichangas: rice krispies","latitude":"37.7441784473757","longitude":"-122.386715929759"}
,{"address":"1580 BURKE AVE","applicant":"Natan's Catering","expirationdate":"2018-03-15T00:00:00.000","fooditems":"Burgers: melts: hot dogs: burritos:sandwiches: fries: onion rings: drinks","latitude":"37.7447521916164","longitude":"-122.385679248721"}
,{"address":"2598 HARRISON ST","applicant":"Santana ESG, Inc.","dayshours":"Mo-Su:9AM-10PM","expirationdate":"2018-03-15T00:00:00.000","fooditems":"Tacos: Burritos: Tortas: Quesadillas: Mexican Drinks: Aguas Frescas","latitude":"0","longitude":"0"}
,{"address":"Assessors Block 4645/Lot015","applicant":"Park's Catering","dayshours":"Mo/Mo/Mo/Mo/Mo:6AM-7AM/10AM-11AM/11AM-12PM","expirationdate":"2018-03-15T00:00:00.000","fooditems":"Cold Truck: Hamburger: cheeseburgers: hot dogs: hot sandwiches: cold sandwiches: egg muffins: cup of noodles: corn dogs: canned soup: coffee: hot cocoa: hot tea: gatorade: juice: milk: soda: water: fruits: fruit salad: rice pudding: yogurt: candy bars: chips: cookies: donuts: granola bars: muffins","latitude":"37.7321349519222","longitude":"-122.375398078567"}
,{"address":"400 CALIFORNIA ST","applicant":"Think is Good Inc.","dayshours":"Tu/Th:10AM-3PM","expirationdate":"2018-03-15T00:00:00.000","fooditems":"Sushi Burrito: Chicken Burrito: Tempura Burrito","latitude":"0","longitude":"0"}
,{"address":"330 NEWHALL ST","applicant":"Park's Catering","dayshours":"Mo-Fr:9AM-10AM","expirationdate":"2018-03-15T00:00:00.000","fooditems":"Cold Truck: Hamburger: cheeseburgers: hot dogs: hot sandwiches: cold sandwiches: egg muffins: cup of noodles: corn dogs: canned soup: coffee: hot cocoa: hot tea: gatorade: juice: milk: soda: water: fruits: fruit salad: rice pudding: yogurt: candy bars: chips: cookies: donuts: granola bars: muffins","latitude":"37.7429898747753","longitude":"-122.386773267176"}
,{"address":"2960 BROADWAY","applicant":"D & T Catering","dayshours":"Mo-Fr:9AM-10AM","expirationdate":"2018-03-15T00:00:00.000","fooditems":"Cold Truck: Pre-packaged sandwiches: Chicken Bake: Canned Soup: Chili Dog: Corn Dog: Cup of Noodles: Egg Muffins: Hamburgers: Cheeseburgers: Hot Dog: Hot sandwiches: quesadillas: Beverages: Flan: Fruits: Yogurt: Candy: Cookies: Chips: Donuts: Snacks","latitude":"37.793186123336","longitude":"-122.445889418675"}
,{"address":"300 PINE ST","applicant":"Senor Sisig","dayshours":"Mo-Fr:11AM-2PM","expirationdate":"2018-03-15T00:00:00.000","fooditems":"Filipino fusion food: tacos: burritos: nachos: rice plates. Various beverages.","latitude":"0","longitude":"0"}
,{"address":"599 08TH ST","applicant":"Two G's Catering","dayshours":"Mo-Fr:12PM-2PM","expirationdate":"2018-03-15T00:00:00.000","fooditems":"Cold Truck: Hot & Cold Sandwiches: Bagels: Burritos: Soups: Hot Dogs: Tacos: Pork Buns: BBQ Meat: Fruit: Various Beverages: Pasties: Pre-Packaged Snacks: Candy: Salads: Muffins: Scones: Brownies: Croissants: Energy Bars: Noodle Bowls","latitude":"37.7718682257671","longitude":"-122.405657636251"}
,{"address":"350 FREMONT ST","applicant":"Mini Mobile Food Catering","dayshours":"Mo-Fr:9AM-10AM/11AM-12PM","expirationdate":"2018-03-15T00:00:00.000","fooditems":"Cold Truck: Corn Dogs: Noodle Soups: Candy: Pre-packaged Snacks: Sandwiches: Chips: Coffee: Tea: Various Beverages","latitude":"37.7870765303843","longitude":"-122.392982624228"}
,{"address":"430 CALIFORNIA ST","applicant":"Lobsta Truck","dayshours":"Mo/We/Fr:10AM-3PM","expirationdate":"2018-03-15T00:00:00.000","fooditems":"Lobster rolls: crab rolls: clam chowder: lobster bisque: chips: lemonade: drinks","latitude":"37.7932622069231","longitude":"-122.401789091363"}
,{"address":"233 GEARY ST","applicant":"San Francisco Carts & Concessions, Inc. DBA Stanley's Steamers Hot Dogs","dayshours":"Mo-Su:6AM-12AM","expirationdate":"2018-03-15T00:00:00.000","fooditems":"Hot dogs: condiments: soft pretzels: soft drinks: coffee: cold beverages: pastries: bakery goods: cookies: ice cream: candy: soups: churros: chestnuts: nuts: fresh fruit: fruit juices: desserts: potato chips and popcorn.","latitude":"37.7872426025967","longitude":"-122.406879738213"}
,{"address":"2101 03RD ST","applicant":"Natan's Catering","expirationdate":"2018-03-15T00:00:00.000","fooditems":"Burgers: melts: hot dogs: burritos:sandwiches: fries: onion rings: drinks","latitude":"0","longitude":"0"}
,{"address":"Assessors Block 4315/Lot03008","applicant":"Natan's Catering","expirationdate":"2018-03-15T00:00:00.000","fooditems":"Burgers: melts: hot dogs: burritos:sandwiches: fries: onion rings: drinks","latitude":"0","longitude":"0"}
,{"address":"409 ILLINOIS ST","applicant":"Two G's Catering","dayshours":"Mo-Su:10AM-11AM","expirationdate":"2018-03-15T00:00:00.000","fooditems":"Cold Truck: Hot & Cold Sandwiches: Bagels: Burritos: Soups: Hot Dogs: Tacos: Pork Buns: BBQ Meat: Fruit: Various Beverages: Pasties: Pre-Packaged Snacks: Candy: Salads: Muffins: Scones: Brownies: Croissants: Energy Bars: Noodle Bowls","latitude":"0","longitude":"0"}
,{"address":"435 CHINA BASIN ST","applicant":"Two G's Catering","dayshours":"Mo-Su:9AM-10AM","expirationdate":"2018-03-15T00:00:00.000","fooditems":"Cold Truck: Hot & Cold Sandwiches: Bagels: Burritos: Soups: Hot Dogs: Tacos: Pork Buns: BBQ Meat: Fruit: Various Beverages: Pasties: Pre-Packaged Snacks: Candy: Salads: Muffins: Scones: Brownies: Croissants: Energy Bars: Noodle Bowls","latitude":"0","longitude":"0"}
,{"address":"555 MISSION ROCK ST","applicant":"Two G's Catering","dayshours":"Mo-Su:10AM-11AM","expirationdate":"2018-03-15T00:00:00.000","fooditems":"Cold Truck: Hot & Cold Sandwiches: Bagels: Burritos: Soups: Hot Dogs: Tacos: Pork Buns: BBQ Meat: Fruit: Various Beverages: Pasties: Pre-Packaged Snacks: Candy: Salads: Muffins: Scones: Brownies: Croissants: Energy Bars: Noodle Bowls","latitude":"0","longitude":"0"}
,{"address":"1310 MINNESOTA ST","applicant":"Mike's Catering","dayshours":"Mo-Fr:10AM-11AM/1PM-2PM","expirationdate":"2018-03-15T00:00:00.000","fooditems":"Cold Truck: packaged sandwiches: snacks: candy: hot and cold drinks","latitude":"37.7536998999438","longitude":"-122.390068346908"}
,{"address":"8 10TH ST","applicant":"Senor Sisig","dayshours":"Mo/We/Fr:11AM-2PM","expirationdate":"2018-03-15T00:00:00.000","fooditems":"Senor Sisig: Filipino fusion food: tacos: burritos: nachos: rice plates. Various beverages.Chairman Bao: Vegetable and meat sandwiches filled with Asian-flavored meats and vegetables.","latitude":"37.7758255197583","longitude":"-122.417249626643"}
,{"address":"1020 03RD ST","applicant":"Got Snacks","dayshours":"Mo-Su:10AM-9PM","expirationdate":"2018-03-15T00:00:00.000","fooditems":"sunflower seeds: crackerjacks: bottled water: peanuts: candy","latitude":"37.7755101380495","longitude":"-122.390999306002"}
,{"address":"1799 03RD ST","applicant":"Two G's Catering","dayshours":"Mo-Fr:6AM-7AM","expirationdate":"2018-03-15T00:00:00.000","fooditems":"Cold Truck: Hot & Cold Sandwiches: Bagels: Burritos: Soups: Hot Dogs: Tacos: Pork Buns: BBQ Meat: Fruit: Various Beverages: Pasties: Pre-Packaged Snacks: Candy: Salads: Muffins: Scones: Brownies: Croissants: Energy Bars: Noodle Bowls","latitude":"37.7679955456856","longitude":"-122.387549426547"}
,{"address":"353 BAY SHORE BLVD","applicant":"Giant Burrito","dayshours":"Mo/Tu/We/Th/Fr:7AM-6PM","expirationdate":"2018-03-15T00:00:00.000","fooditems":"Tacos: Burritos: Tostadas: Flautas: Tostadas: Tortas: Pozole Menudo","latitude":"37.7417178307439","longitude":"-122.405417977448"}
,{"address":"251 11TH ST","applicant":"John's Catering #5","dayshours":"Mo-Fr:10AM-11AM/3PM-4PM","expirationdate":"2018-03-15T00:00:00.000","fooditems":"Cold Truck: Soda:Chips:Candy: Cold/Hot Sandwiches: Donuts.  (Pitco Wholesale)","latitude":"37.7724967778067","longitude":"-122.414209845167"}
,{"address":"370 DRUMM ST","applicant":"Curry Up Now","dayshours":"Mo/Tu/We/Th/Fr:2PM-3PM","expirationdate":"2018-03-15T00:00:00.000","fooditems":"Chicken Tiki Masala Burritos: Paneer Tiki Masala Burritos: Samosas: Mango Lassi","latitude":"37.7969137124835","longitude":"-122.396650675264"}
,{"address":"66 POTRERO AVE","applicant":"Natan's Catering","expirationdate":"2018-03-15T00:00:00.000","fooditems":"Burgers: melts: hot dogs: burritos:sandwiches: fries: onion rings: drinks","latitude":"37.7685432890242","longitude":"-122.408492892439"}
,{"address":"2111 LANE ST","applicant":"Quan Catering","dayshours":"Mo-Fr:8AM-9AM","expirationdate":"2018-03-15T00:00:00.000","fooditems":"Cold Truck: Soft drinks: cup cakes: potato chips: cookies: gum: sandwiches (hot & cold): peanuts: muffins: coff (hot & cold): water: juice: yoplait: milk: orange juice: sunflower seeds: can foods: burritos: buscuits: chimichangas: rice krispies","latitude":"37.7287879577264","longitude":"-122.392294820702"}
,{"address":"245 01ST ST","applicant":"Mini Mobile Food Catering","dayshours":"Mo-Fr:10AM-11AM","expirationdate":"2018-03-15T00:00:00.000","fooditems":"Cold Truck: Corn Dogs: Noodle Soups: Candy: Pre-packaged Snacks: Sandwiches: Chips: Coffee: Tea: Various Beverages","latitude":"37.7879000978181","longitude":"-122.394594036205"}
,{"address":"501 BEALE ST","applicant":"Linda's Catering","dayshours":"Mo/Tu/We/Th/Fr:9AM-11AM","expirationdate":"2018-03-15T00:00:00.000","fooditems":"Hot Dogs: Hamburgers: Nachos: Steaks: Pastas: Asian Dishes: Tri-Tip Sandwiches: Sodas & Water","latitude":"37.7862367744654","longitude":"-122.389066205605"}
,{"address":"1460 BANCROFT AVE","applicant":"Liang Bai Ping","dayshours":"Mo-Fr:9AM-10AM","expirationdate":"2018-03-15T00:00:00.000","fooditems":"Cold Truck: Pre-packaged sandwiches: snacks: fruit: various beverages","latitude":"37.7244132432963","longitude":"-122.390157239611"}
,{"address":"2901 03RD ST","applicant":"Tacos El Flaco","dayshours":"Mo/Tu/We/Th/Fr:7AM-6PM","expirationdate":"2018-03-15T00:00:00.000","fooditems":"Tacos: Burritos: Tortas: Quesadillas: Chips & Salsa & Various Beverages","latitude":"37.7524049924783","longitude":"-122.387000196298"}
,{"address":"340 BRANNAN ST","applicant":"Off the Grid Services, LLC","dayshours":"Tu/Th:8AM-3PM","expirationdate":"2018-03-15T00:00:00.000","fooditems":"Everything","latitude":"37.7812646860228","longitude":"-122.393229041538"}
,{"address":"3000 03RD ST","applicant":"Anas Goodies Catering","dayshours":"Mo-Fr:11AM-12PM","expirationdate":"2018-03-15T00:00:00.000","fooditems":"Cold Truck: Sandwiches: Noodles:  Pre-packaged Snacks: Candy: Desserts Various Beverages","latitude":"37.7504641155225","longitude":"-122.387908325902"}
,{"address":"1199 ORTEGA ST","applicant":"Eva's Catering","dayshours":"Sa:8AM-10AM","expirationdate":"2018-03-15T00:00:00.000","fooditems":"Cold Truck: Burrito: Corn Dog: Salads: Sandwiches: Quesadilla: Tacos: Fried Rice: Cow Mein: Chinese Rice: Noodle Plates: Soup: Bacon: Eggs: Ham: Avacado: Sausages: Beverages","latitude":"37.7835091222127","longitude":"-122.4900712081"}
,{"address":"220 NEWHALL ST","applicant":"Park's Catering","dayshours":"Mo-Fr:9AM-10AM","expirationdate":"2018-03-15T00:00:00.000","fooditems":"Cold Truck: Hamburger: cheeseburgers: hot dogs: hot sandwiches: cold sandwiches: egg muffins: cup of noodles: corn dogs: canned soup: coffee: hot cocoa: hot tea: gatorade: juice: milk: soda: water: fruits: fruit salad: rice pudding: yogurt: candy bars: chips: cookies: donuts: granola bars: muffins","latitude":"37.7430142496315","longitude":"-122.384460244935"}
,{"address":"1100 ORTEGA ST","applicant":"Eva's Catering","dayshours":"Mo-Fr:8AM-10AM","expirationdate":"2018-03-15T00:00:00.000","fooditems":"Cold Truck: Burrito: Corn Dog: Salads: Sandwiches: Quesadilla: Tacos: Fried Rice: Cow Mein: Chinese Rice: Noodle Plates: Soup: Bacon: Eggs: Ham: Avacado: Sausages: Beverages","latitude":"37.7526605204123","longitude":"-122.475473531781"}
,{"address":"1153 SHAFTER AVE","applicant":"Liang Bai Ping","dayshours":"Mo-Fr:11AM-12PM","expirationdate":"2018-03-15T00:00:00.000","fooditems":"Cold Truck: Pre-packaged sandwiches: snacks: fruit: various beverages","latitude":"37.7264851632165","longitude":"-122.383232458707"}
,{"address":"601 CRESCENT AVE","applicant":"Golden Catering","dayshours":"Mo/Tu/We/Th/Fr:11AM-12PM","expirationdate":"2018-03-15T00:00:00.000","fooditems":"Cold Truck: Pre-packaged Sandwiches: Various Beverages: Salads: Snacks","latitude":"37.7350052991284","longitude":"-122.415417409745"}
,{"address":"1501 FOLSOM ST","applicant":"Bay Area Mobile Catering, Inc. dba. Taqueria Angelica's","dayshours":"Sa-Su:12AM-3AM;Fr/Sa:9PM-12AM","expirationdate":"2018-03-15T00:00:00.000","fooditems":"Tacos: burritos: soda & juice","latitude":"37.7715867026703","longitude":"-122.414007043024"}
,{"address":"Assessors Block 8732/Lot001","applicant":"Natan's Catering","expirationdate":"2018-03-15T00:00:00.000","fooditems":"Burgers: melts: hot dogs: burritos:sandwiches: fries: onion rings: drinks","latitude":"37.7707029760975","longitude":"-122.390790355566"}
,{"address":"670 05TH ST","applicant":"Off the Grid Services, LLC","dayshours":"Mo/We/Fr:8AM-3PM","expirationdate":"2018-03-15T00:00:00.000","fooditems":"Everything","latitude":"37.7755890799594","longitude":"-122.39797690638"}
,{"address":"435 23RD ST","applicant":"Mike's Catering","dayshours":"Mo-Fr:9AM-10AM","expirationdate":"2018-03-15T00:00:00.000","fooditems":"Cold Truck: packaged sandwiches: snacks: candy: hot and cold drinks","latitude":"37.7550307267667","longitude":"-122.384530734223"}
,{"address":"500 SELBY ST","applicant":"Quan Catering","dayshours":"Mo-Fr:8AM-8AM/11AM-12PM","expirationdate":"2018-03-15T00:00:00.000","fooditems":"Cold Truck: Soft drinks: cup cakes: potato chips: cookies: gum: sandwiches (hot & cold): peanuts: muffins: coff (hot & cold): water: juice: yoplait: milk: orange juice: sunflower seeds: can foods: burritos: buscuits: chimichangas: rice krispies","latitude":"37.7444982132112","longitude":"-122.396955405842"}
,{"address":"150 CALIFORNIA ST","applicant":"Expresso Subito, LLC.","dayshours":"Tu/Th:6AM-8PM","expirationdate":"2018-03-15T00:00:00.000","fooditems":"Expresso drinks: assorted beverages (canned: bottled: home made): scones: croissants: bagels: soup: chili: parfaits: smoothies: frappes: milk shakes.","latitude":"37.7936733815047","longitude":"-122.398463509486"}
,{"address":"115 SANSOME ST","applicant":"Scotch Bonnet","dayshours":"Fr:6AM-8PM","expirationdate":"2018-03-15T00:00:00.000","fooditems":"Jerk chicken: curry chicken: curry goat: curry dhal: Burritos: Fish: Ox tails: rice: beans: veggies.","latitude":"37.7914265413321","longitude":"-122.401037856688"}
,{"address":"1420 CARROLL AVE","applicant":"Anas Goodies Catering","dayshours":"Mo-Fr:7AM-8AM","expirationdate":"2018-03-15T00:00:00.000","fooditems":"Cold Truck: Sandwiches: Noodles:  Pre-packaged Snacks: Candy: Desserts Various Beverages","latitude":"37.7235768564887","longitude":"-122.390059101399"}
,{"address":"275 STEUART ST","applicant":"Steve's Mobile Deli","dayshours":"Mo-Fr:7AM-8AM/9AM-10AM","expirationdate":"2018-03-15T00:00:00.000","fooditems":"Cold Truck: Pre-packaged sandwiches: Burgers: Hot Dogs: Muffin Sandwiches: Enchiladas: Bagels: Burritos: Salads: Snacks: Beverages","latitude":"37.7913707416848","longitude":"-122.390312812107"}
,{"address":"400 ALEMANY BLVD","applicant":"Natan's Catering","expirationdate":"2018-03-15T00:00:00.000","fooditems":"Burgers: melts: hot dogs: burritos:sandwiches: fries: onion rings: drinks","latitude":"37.7331423951426","longitude":"-122.414568632419"}
,{"address":"901 MISSION ST","applicant":"Senor Sisig","dayshours":"Tu/Th:10AM-3PM","expirationdate":"2018-03-15T00:00:00.000","fooditems":"Senor Sisig: Filipino fusion food: tacos: burritos: nachos: rice plates. Various beverages.","latitude":"37.7821536409986","longitude":"-122.406601106839"}
,{"address":"1555 BURKE AVE","applicant":"Park's Catering","dayshours":"Mo-Fr:8AM-10AM","expirationdate":"2018-03-15T00:00:00.000","fooditems":"Cold Truck: Hamburger: cheeseburgers: hot dogs: hot sandwiches: cold sandwiches: egg muffins: cup of noodles: corn dogs: canned soup: coffee: hot cocoa: hot tea: gatorade: juice: milk: soda: water: fruits: fruit salad: rice pudding: yogurt: candy bars: chips: cookies: donuts: granola bars: muffins","latitude":"37.743713475368","longitude":"-122.385964790036"}
,{"address":"1690 FOLSOM ST","applicant":"Mini Mobile Food Catering","dayshours":"Mo-Fr:8AM-9AM","expirationdate":"2018-03-15T00:00:00.000","fooditems":"Cold Truck: Corn Dogs: Noodle Soups: Candy: Pre-packaged Snacks: Sandwiches: Chips: Coffee: Tea: Various Beverages","latitude":"37.7701375805015","longitude":"-122.415983402804"}
,{"address":"625 02ND ST","applicant":"Think is Good Inc.","dayshours":"Mo-Fr:12PM-5PM","expirationdate":"2018-03-15T00:00:00.000","fooditems":"Sushi Burrito: Chicken Burrito: Tempura Burrito","latitude":"37.7816889753451","longitude":"-122.391061817287"}
,{"address":"1700 16TH ST","applicant":"Tres Agaves Mexican Kitchen & Tequila Lounge LLC. dba Tres Truck","dayshours":"We/Th/Fr:8AM-3PM","expirationdate":"2018-03-15T00:00:00.000","fooditems":"Multiple Trucks - Everything","latitude":"37.76621745068","longitude":"-122.403952784121"}
,{"address":"735 MONTGOMERY ST","applicant":"Philz Coffee Truck","dayshours":"Mo-We:6AM-6PM","expirationdate":"2018-03-15T00:00:00.000","fooditems":"Hot coffee: iced coffee: hot chocolate: tea: pastries","latitude":"37.7962154965941","longitude":"-122.403754558245"}
,{"address":"34 ELLIS ST","applicant":"Think is Good Inc.","dayshours":"Sa-Su:11AM-2PM/1PM-4PM","expirationdate":"2018-03-15T00:00:00.000","fooditems":"Sushi Burrito: Chicken Burrito: Tempura Burrito","latitude":"37.7875651653788","longitude":"-122.40959283348"}
,{"address":"50 01ST ST","applicant":"Scotch Bonnet","dayshours":"Mo:6AM-8PM","expirationdate":"2018-03-15T00:00:00.000","fooditems":"Jerk chicken: curry chicken: curry goat: curry dhal: Burritos: Fish: Ox tails: rice: beans: veggies.","latitude":"37.7901490737255","longitude":"-122.398658184604"}
,{"address":"1347 DONNER AVE","applicant":"Anas Goodies Catering","dayshours":"Mo-Fr:7AM-8AM","expirationdate":"2018-03-15T00:00:00.000","fooditems":"Cold Truck: Sandwiches: Noodles:  Pre-packaged Snacks: Candy: Desserts Various Beverages","latitude":"37.7214508397335","longitude":"-122.389353445076"}
,{"address":"610 BRANNAN ST","applicant":"John's Catering #5","dayshours":"Mo-Fr:9AM-10AM","expirationdate":"2018-03-15T00:00:00.000","fooditems":"Cold Truck: Soda:Chips:Candy: Cold/Hot Sandwiches: Donuts.  (Pitco Wholesale)","latitude":"37.7766269199223","longitude":"-122.399555503787"}
,{"address":"400 MONTGOMERY ST","applicant":"Halal Cart, LLC","dayshours":"Mo/We/Fr:10AM-3PM","expirationdate":"2018-03-15T00:00:00.000","fooditems":"kebabs: halal gyro: grilled halal meat: refreshments","latitude":"37.7931486269835","longitude":"-122.402567175578"}
,{"address":"90 BROADWAY","applicant":"Off the Grid Services, LLC","dayshours":"Mo/We/Fr:10AM-3PM","expirationdate":"2018-03-15T00:00:00.000","fooditems":"everything except for hot dogs","latitude":"37.7992601135023","longitude":"-122.399617948655"}
,{"address":"451 MONTGOMERY ST","applicant":"Roadside Rotisserie Corporation / Country Grill","dayshours":"Mo/We/Fr:9AM-3PM","expirationdate":"2018-03-15T00:00:00.000","fooditems":"Rotisserie Chicken; Ribs; Pork Loin; Roasted Potatoes; Chicken Wrap; Kale Salad; Drinks","latitude":"37.7935769332618","longitude":"-122.403229876701"}
,{"address":"3801 03RD ST","applicant":"Park's Catering","dayshours":"Mo-Fr:9AM-10AM","expirationdate":"2018-03-15T00:00:00.000","fooditems":"Cold Truck: Hamburger: cheeseburgers: hot dogs: hot sandwiches: cold sandwiches: egg muffins: cup of noodles: corn dogs: canned soup: coffee: hot cocoa: hot tea: gatorade: juice: milk: soda: water: fruits: fruit salad: rice pudding: yogurt: candy bars: chips: cookies: donuts: granola bars: muffins","latitude":"37.7410262077887","longitude":"-122.387792927994"}
,{"address":"1335 YOSEMITE AVE","applicant":"Liang Bai Ping","dayshours":"Mo-Fr:7AM-8AM/10AM-11AM","expirationdate":"2018-03-15T00:00:00.000","fooditems":"Cold Truck: Pre-packaged sandwiches: snacks: fruit: various beverages","latitude":"37.7238788408325","longitude":"-122.387010878785"}
,{"address":"1555 BANCROFT AVE","applicant":"Liang Bai Ping","dayshours":"Mo-Fr:8AM-9AM","expirationdate":"2018-03-15T00:00:00.000","fooditems":"Cold Truck: Pre-packaged sandwiches: snacks: fruit: various beverages","latitude":"37.7243975297434","longitude":"-122.391505116383"}
,{"address":"475 CALIFORNIA ST","applicant":"Sanguchon","dayshours":"Mo/We/Fr:11AM-3PM","expirationdate":"2018-03-15T00:00:00.000","fooditems":"Peruvian food","latitude":"37.792346385148","longitude":"-122.402385322794"}
,{"address":"898 PENNSYLVANIA AVE","applicant":"F & C Catering","dayshours":"Mo/Tu/We/Th:10AM-11AM","expirationdate":"2018-03-15T00:00:00.000","fooditems":"Cold Truck: Hot/Cold Sandwiches: Water: Soda: Juice: Snacks: Milk: Candies: Canned Food: Soups: Cup of Noodles: Fruit: Salad","latitude":"37.7555344716039","longitude":"-122.393925277539"}
,{"address":"250 BROADWAY","applicant":"Mike's Catering","dayshours":"Mo-Fr:9AM-10AM/1PM-2PM","expirationdate":"2018-03-15T00:00:00.000","fooditems":"Cold Truck: packaged sandwiches: snacks: candy: hot and cold drinks","latitude":"37.7987549364009","longitude":"-122.401798793854"}
,{"address":"1337 VAN DYKE AVE","applicant":"Liang Bai Ping","dayshours":"Mo-Fr:9AM-10AM","expirationdate":"2018-03-15T00:00:00.000","fooditems":"Cold Truck: Pre-packaged sandwiches: snacks: fruit: various beverages","latitude":"37.7262494817986","longitude":"-122.387815368014"}
,{"address":"290 TOWNSEND ST","applicant":"Linda's Catering","dayshours":"Mo-Fr:10AM-3PM","expirationdate":"2018-03-15T00:00:00.000","fooditems":"Hot Dogs: Hamburgers: Nachos: Steaks: Pastas: Asian Dishes: Tri-Tip Sandwiches: Sodas & Water","latitude":"37.7777552165686","longitude":"-122.394807823179"}
,{"address":"630 BRANNAN ST","applicant":"Eva's Catering","dayshours":"Mo-Fr:5AM-7AM","expirationdate":"2018-03-15T00:00:00.000","fooditems":"Cold Truck: Burrito: Corn Dog: Salads: Sandwiches: Quesadilla: Tacos: Fried Rice: Cow Mein: Chinese Rice: Noodle Plates: Soup: Bacon: Eggs: Ham: Avacado: Sausages: Beverages","latitude":"37.7760987531573","longitude":"-122.400287239868"}
,{"address":"3150 03RD ST","applicant":"Anas Goodies Catering","dayshours":"Mo-Fr:9AM-10AM/11AM-12PM","expirationdate":"2018-03-15T00:00:00.000","fooditems":"Cold Truck: Sandwiches: Noodles:  Pre-packaged Snacks: Candy: Desserts Various Beverages","latitude":"37.7494429376004","longitude":"-122.387985532504"}
,{"address":"120 ELLIS ST","applicant":"Senor Sisig","dayshours":"Sa-Su:11AM-6PM","expirationdate":"2018-03-15T00:00:00.000","fooditems":"Filipino fusion food: taco: burrito: nachos: rice plates","latitude":"37.7856100863691","longitude":"-122.408154764345"}
,{"address":"1351 UNDERWOOD AVE","applicant":"Liang Bai Ping","dayshours":"Mo-Fr:9AM-10AM","expirationdate":"2018-03-15T00:00:00.000","fooditems":"Cold Truck: Pre-packaged sandwiches: snacks: fruit: various beverages","latitude":"37.7270146636245","longitude":"-122.387497359022"}
,{"address":"60 SPEAR ST","applicant":"Slider Shack, LLC.","dayshours":"Tu/We:10AM-3PM","expirationdate":"2018-03-15T00:00:00.000","fooditems":"Sliders: Tater Tots: Beverages","latitude":"37.7925359884311","longitude":"-122.394593199235"}
,{"address":"600 16TH ST","applicant":"Natan's Catering","expirationdate":"2018-03-15T00:00:00.000","fooditems":"Burgers: melts: hot dogs: burritos:sandwiches: fries: onion rings: drinks","latitude":"37.7674662871448","longitude":"-122.390860289431"}
,{"address":"1515 GRIFFITH ST","applicant":"Liang Bai Ping","dayshours":"Mo/Mo/Tu/Tu/We:8AM-9AM","expirationdate":"2018-03-15T00:00:00.000","fooditems":"Cold Truck: Pre-packaged sandwiches: snacks: fruit: various beverages","latitude":"37.7253194336755","longitude":"-122.381389209427"}
,{"address":"560 MISSION ST","applicant":"Lobsta Truck","dayshours":"Tu/Th:10AM-3PM","expirationdate":"2018-03-15T00:00:00.000","fooditems":"Lobster rolls: crab rolls: clam chowder: lobster bisque: chips: lemonade: drinks","latitude":"37.788864715343","longitude":"-122.399359351363"}
,{"address":"700 PENNSYLVANIA AVE","applicant":"Anas Goodies Catering","dayshours":"Mo-Fr:9AM-10AM/12PM-1PM","expirationdate":"2018-03-15T00:00:00.000","fooditems":"Cold Truck: Sandwiches: Noodles:  Pre-packaged Snacks: Candy: Desserts Various Beverages","latitude":"37.7569236537341","longitude":"-122.393549610536"}
,{"address":"Assessors Block 4281a/Lot012A","applicant":"Natan's Catering","expirationdate":"2018-03-15T00:00:00.000","fooditems":"Burgers: melts: hot dogs: burritos:sandwiches: fries: onion rings: drinks","latitude":"37.7507607694601","longitude":"-122.401540291357"}
,{"address":"401 HARRISON ST","applicant":"John's Catering #5","dayshours":"Mo-Fr:5AM-6AM","expirationdate":"2018-03-15T00:00:00.000","fooditems":"Cold Truck: Soda:Chips:Candy: Cold/Hot Sandwiches: Donuts.  (Pitco Wholesale)","latitude":"37.7860625210972","longitude":"-122.392176463949"}
,{"address":"2555 BAY SHORE BLVD","applicant":"Quan Catering","dayshours":"Mo-Fr:9AM-10AM","expirationdate":"2018-03-15T00:00:00.000","fooditems":"Cold Truck: Soft drinks: cup cakes: potato chips: cookies: gum: sandwiches (hot & cold): peanuts: muffins: coff (hot & cold): water: juice: yoplait: milk: orange juice: sunflower seeds: can foods: burritos: buscuits: chimichangas: rice krispies","latitude":"37.7093754640014","longitude":"-122.404154378509"}
,{"address":"1315 ARMSTRONG AVE","applicant":"Anas Goodies Catering","dayshours":"Mo-Fr:8AM-9AM","expirationdate":"2018-03-15T00:00:00.000","fooditems":"Cold Truck: Sandwiches: Noodles:  Pre-packaged Snacks: Candy: Desserts Various Beverages","latitude":"37.723078757516","longitude":"-122.387525704017"}
,{"address":"50 QUINT ST","applicant":"Natan's Catering","expirationdate":"2018-03-15T00:00:00.000","fooditems":"Burgers: melts: hot dogs: burritos:sandwiches: fries: onion rings: drinks","latitude":"37.7464705066471","longitude":"-122.388990808654"}
,{"address":"1200 MISSISSIPPI ST","applicant":"Park's Catering","dayshours":"Mo-Fr:5AM-6AM","expirationdate":"2018-03-15T00:00:00.000","fooditems":"Cold Truck: Hamburger: cheeseburgers: hot dogs: hot sandwiches: cold sandwiches: egg muffins: cup of noodles: corn dogs: canned soup: coffee: hot cocoa: hot tea: gatorade: juice: milk: soda: water: fruits: fruit salad: rice pudding: yogurt: candy bars: chips: cookies: donuts: granola bars: muffins","latitude":"37.7516910357229","longitude":"-122.394374213263"}
,{"address":"525 MARKET ST","applicant":"The Chai Cart","dayshours":"Mo-Fr:8AM-4PM","expirationdate":"2018-03-15T00:00:00.000","fooditems":"Hot Indian Chai","latitude":"37.7904067199405","longitude":"-122.399275886086"}
,{"address":"1028 MISSION ST","applicant":"Rita's Catering","dayshours":"Mo/We/Fr:7AM-3PM","expirationdate":"2018-03-15T00:00:00.000","fooditems":"Filipino Food","latitude":"37.7806943774082","longitude":"-122.409668813219"}
,{"address":"1135 REVERE AVE","applicant":"Liang Bai Ping","dayshours":"Mo-Fr:11AM-12PM","expirationdate":"2018-03-15T00:00:00.000","fooditems":"Cold Truck: Pre-packaged sandwiches: snacks: fruit: various beverages","latitude":"37.726470716246","longitude":"-122.381541219158"}
,{"address":"1650 DAVIDSON AVE","applicant":"Park's Catering","dayshours":"Mo-Fr:8AM-9AM","expirationdate":"2018-03-15T00:00:00.000","fooditems":"Cold Truck: Hamburger: cheeseburgers: hot dogs: hot sandwiches: cold sandwiches: egg muffins: cup of noodles: corn dogs: canned soup: coffee: hot cocoa: hot tea: gatorade: juice: milk: soda: water: fruits: fruit salad: rice pudding: yogurt: candy bars: chips: cookies: donuts: granola bars: muffins","latitude":"37.7467113030403","longitude":"-122.392150319453"}
,{"address":"601 23RD ST","applicant":"Anas Goodies Catering","dayshours":"Mo-Fr:9AM-10AM","expirationdate":"2018-03-15T00:00:00.000","fooditems":"Cold Truck: Sandwiches: Noodles:  Pre-packaged Snacks: Candy: Desserts Various Beverages","latitude":"37.7550307267667","longitude":"-122.384530734223"}
,{"address":"250 PINE ST","applicant":"Philz Coffee Truck","dayshours":"Mo/We/Fr:6AM-3PM","expirationdate":"2018-03-15T00:00:00.000","fooditems":"Hot coffee: iced coffee: hot chocolate: tea: pastries","latitude":"37.7922955998187","longitude":"-122.400706897233"}
,{"address":"2890 03RD ST","applicant":"F & C Catering","dayshours":"Mo-Fr:6AM-9AM/12PM-1PM","expirationdate":"2018-03-15T00:00:00.000","fooditems":"Cold Truck: Hot/Cold Sandwiches: Water: Soda: Juice: Snacks: Milk: Candies: Canned Food: Soups: Cup of Noodles: Fruit: Salad","latitude":"37.7531087498713","longitude":"-122.388170202066"}
,{"address":"620 MENDELL ST","applicant":"Mini Mobile Food Catering","dayshours":"Sa:11AM-2PM","expirationdate":"2018-03-15T00:00:00.000","fooditems":"Cold Truck: Corn Dogs: Noodle Soups: Candy: Pre-packaged Snacks: Sandwiches: Chips: Coffee: Tea: Various Beverages","latitude":"37.7393786694373","longitude":"-122.386337945153"}
,{"address":"222 02ND ST","applicant":"Quan Catering","dayshours":"Mo-Fr:10AM-12PM","expirationdate":"2018-03-15T00:00:00.000","fooditems":"Cold Truck: Soft drinks: cup cakes: potato chips: cookies: gum: sandwiches (hot & cold): peanuts: muffins: coff (hot & cold): water: juice: yoplait: milk: orange juice: sunflower seeds: can foods: burritos: buscuits: chimichangas: rice krispies","latitude":"37.786319798284","longitude":"-122.398235074249"}
,{"address":"430 CALIFORNIA ST","applicant":"Scotch Bonnet","dayshours":"Tu/Th:6AM-8PM","expirationdate":"2018-03-15T00:00:00.000","fooditems":"Jerk chicken: curry chicken: curry goat: curry dhal: Burritos: Fish: Ox tails: rice: beans: veggies.","latitude":"37.7932622069231","longitude":"-122.401789091363"}
,{"address":"175 BLUXOME ST","applicant":"Steve's Mobile Deli","dayshours":"Mo-Fr:7AM-8AM","expirationdate":"2018-03-15T00:00:00.000","fooditems":"Cold Truck: Pre-packaged sandwiches: Burgers: Hot Dogs: Muffin Sandwiches: Enchiladas: Bagels: Burritos: Salads: Snacks: Beverages","latitude":"37.7743789308184","longitude":"-122.399574742126"}
,{"address":"3305 03RD ST","applicant":"Quan Catering","dayshours":"Mo-Fr:7AM-8AM/10AM-12PM","expirationdate":"2018-03-15T00:00:00.000","fooditems":"Cold Truck: Soft drinks: cup cakes: potato chips: cookies: gum: sandwiches (hot & cold): peanuts: muffins: coff (hot & cold): water: juice: yoplait: milk: orange juice: sunflower seeds: can foods: burritos: buscuits: chimichangas: rice krispies","latitude":"37.7438311721327","longitude":"-122.377797368962"}
,{"address":"945 MARKET ST","applicant":"Yummy Hot Dogs","dayshours":"Mo/We/Fr:10AM-7PM","expirationdate":"2018-03-15T00:00:00.000","fooditems":"Hot dogs: pretzels: chips: juices and cold drinks","latitude":"37.7828341636984","longitude":"-122.408837940446"}
,{"address":"Assessors Block 3788/Lot002","applicant":"Mike's Catering","dayshours":"Mo/Mo/Mo/Mo/Mo:7AM-8AM/9AM-11AM;Su/Su/Su/Su/Su:9AM-2PM;Sa/Sa/Sa/Sa/Sa:9AM-3PM;Mo/Mo/Mo/Mo/Mo:11AM-1","expirationdate":"2018-03-15T00:00:00.000","fooditems":"Cold Truck: packaged sandwiches: snacks: candy: hot and cold drinks","latitude":"37.7810746780754","longitude":"-122.391705661167"}
,{"address":"2115 JENNINGS ST","applicant":"Liang Bai Ping","dayshours":"Mo-Fr:10AM-11AM","expirationdate":"2018-03-15T00:00:00.000","fooditems":"Cold Truck: Pre-packaged sandwiches: snacks: fruit: various beverages","latitude":"37.7267279782571","longitude":"-122.388658428832"}
,{"address":"525 HOWARD ST","applicant":"Steve's Mobile Deli","dayshours":"Mo-Fr:8AM-9AM/11AM-12PM","expirationdate":"2018-03-15T00:00:00.000","fooditems":"Cold Truck: Pre-packaged sandwiches: Burgers: Hot Dogs: Muffin Sandwiches: Enchiladas: Bagels: Burritos: Salads: Snacks: Beverages","latitude":"37.7878141077683","longitude":"-122.396322298302"}
,{"address":"Assessors Block 8722/Lot003","applicant":"Natan's Catering","expirationdate":"2018-03-15T00:00:00.000","fooditems":"Burgers: melts: hot dogs: burritos:sandwiches: fries: onion rings: drinks","latitude":"37.7674330173312","longitude":"-122.392149114172"}
,{"address":"1475 CARROLL AVE","applicant":"Liang Bai Ping","dayshours":"Mo-Fr:7AM-8AM","expirationdate":"2018-03-15T00:00:00.000","fooditems":"Cold Truck: Pre-packaged sandwiches: snacks: fruit: various beverages","latitude":"37.7232598663241","longitude":"-122.391172885969"}
,{"address":"390 01ST ST","applicant":"Steve's Mobile Deli","dayshours":"Mo-Fr:6AM-7AM/11AM-12PM","expirationdate":"2018-03-15T00:00:00.000","fooditems":"Cold Truck: Pre-packaged sandwiches: Burgers: Hot Dogs: Muffin Sandwiches: Enchiladas: Bagels: Burritos: Salads: Snacks: Beverages","latitude":"37.7860914634251","longitude":"-122.3934729318"}
,{"address":"617 BRYANT ST","applicant":"Linda's Catering","dayshours":"Mo/Tu/Th/Fr:8AM-9AM/10AM-11AM","expirationdate":"2018-03-15T00:00:00.000","fooditems":"Hot Dogs: Hamburgers: Nachos: Steaks: Pastas: Asian Dishes: Tri-Tip Sandwiches: Sodas & Water","latitude":"37.7790511115731","longitude":"-122.398303881334"}
,{"address":"1377 FELL ST","applicant":"Liang Bai Ping","dayshours":"Mo-Fr:1PM-3PM","expirationdate":"2018-03-15T00:00:00.000","fooditems":"Cold Truck: Pre-packaged sandwiches: snacks: fruit: various beverages","latitude":"37.7732879404704","longitude":"-122.440032316635"}
,{"address":"931 PALOU AVE","applicant":"Liang Bai Ping","dayshours":"Mo-Fr:9AM-10AM/10AM-11AM","expirationdate":"2018-03-15T00:00:00.000","fooditems":"Cold Truck: Pre-packaged sandwiches: snacks: fruit: various beverages","latitude":"37.7267339112416","longitude":"-122.378972005236"}
,{"address":"260 TOWNSEND ST","applicant":"Linda's Catering","dayshours":"Mo-Fr:12PM-10PM","expirationdate":"2018-03-15T00:00:00.000","fooditems":"Hot Dogs: Hamburgers: Nachos: Steaks: Pastas: Asian Dishes: Tri-Tip Sandwiches: Sodas & Water","latitude":"37.7781481274607","longitude":"-122.394440688559"}
,{"address":"1160 REVERE AVE","applicant":"Liang Bai Ping","dayshours":"Mo-Fr:11AM-12PM","expirationdate":"2018-03-15T00:00:00.000","fooditems":"Cold Truck: Pre-packaged sandwiches: snacks: fruit: various beverages","latitude":"37.7272340074959","longitude":"-122.38181551187"}
,{"address":"3756 JACKSON ST","applicant":"D & T Catering","dayshours":"Mo-Fr:9AM-10AM","expirationdate":"2018-03-15T00:00:00.000","fooditems":"Cold Truck: Pre-packaged sandwiches: Chicken Bake: Canned Soup: Chili Dog: Corn Dog: Cup of Noodles: Egg Muffins: Hamburgers: Cheeseburgers: Hot Dog: Hot sandwiches: quesadillas: Beverages: Flan: Fruits: Yogurt: Candy: Cookies: Chips: Donuts: Snacks","latitude":"37.7899082332987","longitude":"-122.456762533982"}
,{"address":"475 CALIFORNIA ST","applicant":"Plaza Garibaldy","dayshours":"Tu/Th/Sa:10AM-3PM","expirationdate":"2018-03-15T00:00:00.000","fooditems":"Tacos: burritos: quesadillas","latitude":"37.792346385148","longitude":"-122.402385322794"}
,{"address":"2590 GREEN ST","applicant":"D & T Catering","dayshours":"Mo-Fr:8AM-9AM","expirationdate":"2018-03-15T00:00:00.000","fooditems":"Cold Truck: Pre-packaged sandwiches: Chicken Bake: Canned Soup: Chili Dog: Corn Dog: Cup of Noodles: Egg Muffins: Hamburgers: Cheeseburgers: Hot Dog: Hot sandwiches: quesadillas: Beverages: Flan: Fruits: Yogurt: Candy: Cookies: Chips: Donuts: Snacks","latitude":"37.7955856498634","longitude":"-122.441718244288"}
,{"address":"2401 BAY SHORE BLVD","applicant":"Golden Catering","dayshours":"Mo-Fr:10AM-11AM","expirationdate":"2018-03-15T00:00:00.000","fooditems":"Cold Truck: Pre-packaged Sandwiches: Various Beverages: Salads: Snacks","latitude":"37.710933792981","longitude":"-122.40278453801"}
,{"address":"1420 04TH ST","applicant":"DO UC US Mobile Catering","dayshours":"Mo-Fr:9AM-10AM","expirationdate":"2018-03-15T00:00:00.000","fooditems":"Cold truck: sandwiches: salads: beverages: chips: candy: cookies: coffee: tea: drinks","latitude":"37.7698977488961","longitude":"-122.391098279635"}
,{"address":"1000 EVANS AVE","applicant":"Park's Catering","dayshours":"Mo-Fr:11AM-12PM","expirationdate":"2018-03-15T00:00:00.000","fooditems":"Cold Truck: Hamburger: cheeseburgers: hot dogs: hot sandwiches: cold sandwiches: egg muffins: cup of noodles: corn dogs: canned soup: coffee: hot cocoa: hot tea: gatorade: juice: milk: soda: water: fruits: fruit salad: rice pudding: yogurt: candy bars: chips: cookies: donuts: granola bars: muffins","latitude":"37.7377268665958","longitude":"-122.376572914573"}
,{"address":"164 14TH ST","applicant":"John's Catering #5","dayshours":"Mo-Fr:10AM-11AM","expirationdate":"2018-03-15T00:00:00.000","fooditems":"Cold Truck: Soda:Chips:Candy: Cold/Hot Sandwiches: Donuts.  (Pitco Wholesale)","latitude":"37.7687652509586","longitude":"-122.416902205953"}
,{"address":"480 HOWARD ST","applicant":"Steve's Mobile Deli","dayshours":"Mo-Fr:11AM-12PM","expirationdate":"2018-03-15T00:00:00.000","fooditems":"Cold Truck: Pre-packaged sandwiches: Burgers: Hot Dogs: Muffin Sandwiches: Enchiladas: Bagels: Burritos: Salads: Snacks: Beverages","latitude":"37.7802918205913","longitude":"-122.406857977965"}
,{"address":"1500 TENNESSEE ST","applicant":"F & C Catering","dayshours":"Mo-Fr:8AM-10AM/10AM-11AM","expirationdate":"2018-03-15T00:00:00.000","fooditems":"Cold Truck: Hot/Cold Sandwiches: Water: Soda: Juice: Snacks: Milk: Candies: Canned Food: Soups: Cup of Noodles: Fruit: Salad","latitude":"37.7522416684803","longitude":"-122.389188542589"}
,{"address":"1575 INDIANA ST","applicant":"Anas Goodies Catering","dayshours":"Mo-Fr:11AM-12PM","expirationdate":"2018-03-15T00:00:00.000","fooditems":"Cold Truck: Sandwiches: Noodles:  Pre-packaged Snacks: Candy: Desserts Various Beverages","latitude":"37.7508496068125","longitude":"-122.390027615501"}
,{"address":"455 MARKET ST","applicant":"Halal Cart, LLC","dayshours":"Mo-Su:10AM-8PM","expirationdate":"2018-03-15T00:00:00.000","fooditems":"Gyros: Kebabs: soft drinks: and water","latitude":"37.7909470419234","longitude":"-122.398633589404"}
,{"address":"551 03RD ST","applicant":"Tacos El Ojo De Agua","dayshours":"Mo-Fr:9AM-4PM","expirationdate":"2018-03-15T00:00:00.000","fooditems":"Tacos: Burritos: Tortas: Quesadillas: Salads: Soup: Fruits: Juices: Soda: Water","latitude":"37.7806472100484","longitude":"-122.394629181662"}
,{"address":"355 11TH ST","applicant":"Mini Mobile Food Catering","dayshours":"Mo-Fr:9AM-10AM","expirationdate":"2018-03-15T00:00:00.000","fooditems":"Cold Truck: Corn Dogs: Noodle Soups: Candy: Pre-packaged Snacks: Sandwiches: Chips: Coffee: Tea: Various Beverages","latitude":"37.771467215901","longitude":"-122.41287229421"}
,{"address":"90 BROADWAY","applicant":"Roadside Rotisserie Corporation / Country Grill","dayshours":"Mo/We/Fr:10AM-2PM","expirationdate":"2018-03-15T00:00:00.000","fooditems":"Rotisserie Chicken: Ribs: Kickass Salad: Potatos w/fat dripping: chicken wrap.","latitude":"37.7992601135023","longitude":"-122.399617948655"}
,{"address":"555 MISSOURI ST","applicant":"Natan's Catering","expirationdate":"2018-03-15T00:00:00.000","fooditems":"Burgers: melts: hot dogs: burritos:sandwiches: fries: onion rings: drinks","latitude":"37.7593037663834","longitude":"-122.395902231236"}
,{"address":"147 FREMONT ST","applicant":"Mini Mobile Food Catering","dayshours":"Mo-Fr:9AM-10AM","expirationdate":"2018-03-15T00:00:00.000","fooditems":"Cold Truck: Corn Dogs: Noodle Soups: Candy: Pre-packaged Snacks: Sandwiches: Chips: Coffee: Tea: Various Beverages","latitude":"37.7901855706334","longitude":"-122.395471725809"}
,{"address":"85 02ND ST","applicant":"Expresso Subito, LLC.","expirationdate":"2018-03-15T00:00:00.000","fooditems":"Expresso drinks: assorted beverages (canned: bottled: home made): scones: croissants: bagels: soup: chili: parfaits: smoothies: frappes: milk shakes.","latitude":"37.7884570288289","longitude":"-122.399884160566"}
,{"address":"1150 25TH ST","applicant":"Two G's Catering","dayshours":"Mo-Fr:8AM-9AM","expirationdate":"2018-03-15T00:00:00.000","fooditems":"Cold Truck: Hot & Cold Sandwiches: Bagels: Burritos: Soups: Hot Dogs: Tacos: Pork Buns: BBQ Meat: Fruit: Various Beverages: Pasties: Pre-Packaged Snacks: Candy: Salads: Muffins: Scones: Brownies: Croissants: Energy Bars: Noodle Bowls","latitude":"37.7531390379784","longitude":"-122.390246816981"}
,{"address":"701 HOWARD ST","applicant":"San Francisco Street Foods, Inc.","dayshours":"Mo-Su:6AM-12AM","expirationdate":"2018-03-15T00:00:00.000","fooditems":"Hot dogs: condiments: soft pretzels: soft drinks: coffee: cold beverages: pastries: bakery goods: cookies: ice cream: candy: soups: churros: chestnuts: nuts: fresh fruit: fruit juices: desserts: potato chips and popcorn.","latitude":"37.7835133512454","longitude":"-122.400813391105"}
,{"address":"420 BERRY ST","applicant":"Mini Mobile Food Catering","dayshours":"Mo-Fr:9AM-10AM","expirationdate":"2018-03-15T00:00:00.000","fooditems":"Cold Truck: Corn Dogs: Noodle Soups: Candy: Pre-packaged Snacks: Sandwiches: Chips: Coffee: Tea: Various Beverages","latitude":"37.7720086564688","longitude":"-122.399083845473"}
,{"address":"800 MARKET ST","applicant":"The New York Frankfurter Co. of CA, Inc. DBA: Annie's Hot Dogs","dayshours":"Mo-Su:6AM-9PM","expirationdate":"2018-03-15T00:00:00.000","fooditems":"Soft pretzels: hot dogs: sausages: chips: popcorn: sodea: coffee: espresso: cappucino: pastries: ice cream: Italian sausages: shish-ka-bob: churros: juice: water: various drinks.","latitude":"37.7854697464899","longitude":"-122.406615761073"}
,{"address":"190 NAPOLEON ST","applicant":"Park's Catering","dayshours":"Mo-Fr:9AM-10AM","expirationdate":"2018-03-15T00:00:00.000","fooditems":"Cold Truck: Hamburger: cheeseburgers: hot dogs: hot sandwiches: cold sandwiches: egg muffins: cup of noodles: corn dogs: canned soup: coffee: hot cocoa: hot tea: gatorade: juice: milk: soda: water: fruits: fruit salad: rice pudding: yogurt: candy bars: chips: cookies: donuts: granola bars: muffins","latitude":"37.7475862762565","longitude":"-122.398865700796"}
,{"address":"90 BROADWAY","applicant":"Senor Sisig","dayshours":"Tu/Th:10AM-3PM","expirationdate":"2018-03-15T00:00:00.000","fooditems":"Senor Sisig: Filipino fusion food: tacos: burritos: nachos: rice plates. Various beverages.Chairman Bao: Vegetable and meat sandwiches filled with Asian-flavored meats and vegetables.","latitude":"37.7992601135023","longitude":"-122.399617948655"}
,{"address":"301 EXECUTIVE PARK BLVD","applicant":"Golden Catering","dayshours":"Mo-Su:10AM-11AM","expirationdate":"2018-03-15T00:00:00.000","fooditems":"Cold Truck: Pre-packaged Sandwiches: Various Beverages: Salads: Snacks","latitude":"37.7116322811949","longitude":"-122.390016333636"}
,{"address":"Assessors Block 8722/Lot005","applicant":"Mike's Catering","dayshours":"Mo/Mo/Mo/Mo/Mo:7AM-8AM/9AM-11AM;Su/Su/Su/Su/Su:9AM-2PM;Sa/Sa/Sa/Sa/Sa:9AM-3PM;Mo/Mo/Mo/Mo/Mo:11AM-1","expirationdate":"2018-03-15T00:00:00.000","fooditems":"Cold Truck: packaged sandwiches: snacks: candy: hot and cold drinks","latitude":"37.7696400322177","longitude":"-122.386236654199"}
,{"address":"120 02ND ST","applicant":"Senor Sisig","dayshours":"Mo-Fr:11AM-2PM","expirationdate":"2018-03-15T00:00:00.000","fooditems":"Filipino fusion food: taco: burrito: nachos: rice plates","latitude":"37.7875140607381","longitude":"-122.399566331429"}
,{"address":"1650 20TH AVE","applicant":"Eva's Catering","dayshours":"Sa:10AM-11AM","expirationdate":"2018-03-15T00:00:00.000","fooditems":"Cold Truck: Burrito: Corn Dog: Salads: Sandwiches: Quesadilla: Tacos: Fried Rice: Cow Mein: Chinese Rice: Noodle Plates: Soup: Bacon: Eggs: Ham: Avacado: Sausages: Beverages","latitude":"37.7579841905286","longitude":"-122.433465780407"}
,{"address":"2750 SCOTT ST","applicant":"D & T Catering","dayshours":"Mo-Fr:8AM-9AM","expirationdate":"2018-03-15T00:00:00.000","fooditems":"Cold Truck: Pre-packaged sandwiches: Chicken Bake: Canned Soup: Chili Dog: Corn Dog: Cup of Noodles: Egg Muffins: Hamburgers: Cheeseburgers: Hot Dog: Hot sandwiches: quesadillas: Beverages: Flan: Fruits: Yogurt: Candy: Cookies: Chips: Donuts: Snacks","latitude":"37.7953158932065","longitude":"-122.4399079176"}
,{"address":"90 BROADWAY","applicant":"Off the Grid Services, LLC","dayshours":"Fr:10AM-3PM","expirationdate":"2018-03-15T00:00:00.000","fooditems":"everything except for hot dogs","latitude":"37.7992601135023","longitude":"-122.399617948655"}
,{"address":"1420 YOSEMITE AVE","applicant":"Liang Bai Ping","dayshours":"Mo-Fr:7AM-8AM","expirationdate":"2018-03-15T00:00:00.000","fooditems":"Cold Truck: Pre-packaged sandwiches: snacks: fruit: various beverages","latitude":"37.7251817007288","longitude":"-122.388192688444"}
,{"address":"1 SANSOME ST","applicant":"Santana ESG, Inc.","dayshours":"Mo-Fr:11AM-3PM","expirationdate":"2018-03-15T00:00:00.000","fooditems":"Tacos: Burritos: Tortas: Quesadillas: Mexican Drinks: Aguas Frescas","latitude":"37.790485146128","longitude":"-122.40094044069"}
,{"address":"300 NEWHALL ST","applicant":"Park's Catering","dayshours":"Mo-Fr:10AM-11AM","expirationdate":"2018-03-15T00:00:00.000","fooditems":"Cold Truck: Hamburger: cheeseburgers: hot dogs: hot sandwiches: cold sandwiches: egg muffins: cup of noodles: corn dogs: canned soup: coffee: hot cocoa: hot tea: gatorade: juice: milk: soda: water: fruits: fruit salad: rice pudding: yogurt: candy bars: chips: cookies: donuts: granola bars: muffins","latitude":"37.7432246838616","longitude":"-122.385342973421"}
,{"address":"1900 19TH AVE","applicant":"Eva's Catering","dayshours":"Sa:8AM-10AM","expirationdate":"2018-03-15T00:00:00.000","fooditems":"Cold Truck: Burrito: Corn Dog: Salads: Sandwiches: Quesadilla: Tacos: Fried Rice: Cow Mein: Chinese Rice: Noodle Plates: Soup: Bacon: Eggs: Ham: Avacado: Sausages: Beverages","latitude":"37.7521241631187","longitude":"-122.475872322222"}
,{"address":"30 BEALE ST","applicant":"Two G's Catering","dayshours":"Mo-Fr:7AM-9AM","expirationdate":"2018-03-15T00:00:00.000","fooditems":"Cold Truck: Hot & Cold Sandwiches: Bagels: Burritos: Soups: Hot Dogs: Tacos: Pork Buns: BBQ Meat: Fruit: Various Beverages: Pasties: Pre-Packaged Snacks: Candy: Salads: Muffins: Scones: Brownies: Croissants: Energy Bars: Noodle Bowls","latitude":"37.7917770783642","longitude":"-122.397132524462"}
,{"address":"888 MARIN ST","applicant":"Natan's Catering","expirationdate":"2018-03-15T00:00:00.000","fooditems":"Burgers: melts: hot dogs: burritos:sandwiches: fries: onion rings: drinks","latitude":"37.749458329027","longitude":"-122.385081339678"}
,{"address":"1550 EVANS AVE","applicant":"F & C Catering","dayshours":"Mo-Fr:11AM-12PM","expirationdate":"2018-03-15T00:00:00.000","fooditems":"Cold Truck: Hot/Cold Sandwiches: Water: Soda: Juice: Snacks: Milk: Candies: Canned Food: Soups: Cup of Noodles: Fruit: Salad","latitude":"37.7429898747753","longitude":"-122.386773267176"}
,{"address":"Assessors Block 3941/Lot001","applicant":"Natan's Catering","expirationdate":"2018-03-15T00:00:00.000","fooditems":"Burgers: melts: hot dogs: burritos:sandwiches: fries: onion rings: drinks","latitude":"37.764741322675","longitude":"-122.387124812179"}
,{"address":"945 BRYANT ST","applicant":"Two G's Catering","dayshours":"Mo-Fr:8AM-9AM","expirationdate":"2018-03-15T00:00:00.000","fooditems":"Cold Truck: Hot & Cold Sandwiches: Bagels: Burritos: Soups: Hot Dogs: Tacos: Pork Buns: BBQ Meat: Fruit: Various Beverages: Pasties: Pre-Packaged Snacks: Candy: Salads: Muffins: Scones: Brownies: Croissants: Energy Bars: Noodle Bowls","latitude":"37.7730940844723","longitude":"-122.405145856485"}
,{"address":"Assessors Block 4341/Lot001","applicant":"Mini Mobile Food Catering","dayshours":"Mo/Mo/Mo/Mo/Mo:6AM-8AM/8AM-9AM","expirationdate":"2018-03-15T00:00:00.000","fooditems":"Cold Truck: Corn Dogs: Noodle Soups: Candy: Pre-packaged Snacks: Sandwiches: Chips: Coffee: Tea: Various Beverages","latitude":"37.7489503634271","longitude":"-122.401493189708"}
,{"address":"250 NAPOLEON ST","applicant":"Park's Catering","dayshours":"Mo-Fr:8AM-9AM","expirationdate":"2018-03-15T00:00:00.000","fooditems":"Cold Truck: Hamburger: cheeseburgers: hot dogs: hot sandwiches: cold sandwiches: egg muffins: cup of noodles: corn dogs: canned soup: coffee: hot cocoa: hot tea: gatorade: juice: milk: soda: water: fruits: fruit salad: rice pudding: yogurt: candy bars: chips: cookies: donuts: granola bars: muffins","latitude":"37.7467555544775","longitude":"-122.400906270359"}
,{"address":"298 MARKET ST","applicant":"The Chai Cart","dayshours":"Mo-Su:7AM-6PM","expirationdate":"2018-03-15T00:00:00.000","fooditems":"Indian Chai (Tea)","latitude":"37.7932137316634","longitude":"-122.397043036718"}
,{"address":"2001 MARKET ST","applicant":"BH & MT LLC","expirationdate":"2018-03-15T00:00:00.000","fooditems":"Cold Truck: Breakfast: Sandwiches: Salads: Pre-Packaged Snacks: Beverages","latitude":"37.7683202495106","longitude":"-122.427110643955"}
,{"address":"1575 INDIANA ST","applicant":"Mike's Catering","dayshours":"Mo-Fr:7AM-9AM","expirationdate":"2018-03-15T00:00:00.000","fooditems":"Cold Truck: packaged sandwiches: snacks: candy: hot and cold drinks","latitude":"37.7508496068125","longitude":"-122.390027615501"}
,{"address":"300 BEALE ST","applicant":"Liang Bai Ping","dayshours":"Mo-Fr:6AM-7AM","expirationdate":"2018-03-15T00:00:00.000","fooditems":"Cold Truck: Pre-packaged sandwiches: snacks: fruit: various beverages","latitude":"37.7881394788716","longitude":"-122.392579515374"}
,{"address":"1003 TURK ST","applicant":"John's Catering #5","dayshours":"Mo-Fr:8AM-9AM/11AM-12PM","expirationdate":"2018-03-15T00:00:00.000","fooditems":"Cold Truck: Soda:Chips:Candy: Cold/Hot Sandwiches: Donuts.  (Pitco Wholesale)","latitude":"37.7808684365681","longitude":"-122.425467726618"}
,{"address":"146 CONNECTICUT ST","applicant":"Natan's Catering","expirationdate":"2018-03-15T00:00:00.000","fooditems":"Burgers: melts: hot dogs: burritos:sandwiches: fries: onion rings: drinks","latitude":"37.7644472955619","longitude":"-122.397987371508"}
,{"address":"345 STOCKTON ST","applicant":"San Francisco Carts & Concessions, Inc. DBA Stanley's Steamers Hot Dogs","dayshours":"Mo-Su:6AM-12AM","expirationdate":"2018-03-15T00:00:00.000","fooditems":"Hot dogs: condiments: soft pretzels: soft drinks: coffee: cold beverages: pastries: bakery goods: cookies: ice cream: candy: soups: churros: chestnuts: nuts: fresh fruit: fruit juices: desserts: potato chips and popcorn.","latitude":"37.7889101495704","longitude":"-122.407196034122"}
,{"address":"3119 ALEMANY BLVD","applicant":"San Pancho's Tacos","dayshours":"Sa-Su:7AM-8PM","expirationdate":"2018-03-15T00:00:00.000","fooditems":"Tacos: Burritos: Quesadillas: Tortas: Nachos: Hot Dogs:Soda: Water: Fruit Drinks","latitude":"37.7101930199757","longitude":"-122.455221906126"}
,{"address":"602 MISSION ST","applicant":"JapaCurry","dayshours":"We/Th:10AM-2PM","expirationdate":"2018-03-15T00:00:00.000","fooditems":"Katsu Curry: KUROBUTA Sausage Curry: Vegetable Curry: Veggie Croquette Curry: Chicken NANBAN Bento: Nori Bento: water: soda: green tea","latitude":"37.787973283216","longitude":"-122.400185049889"}
,{"address":"3040 HARRISON ST","applicant":"Natan's Catering","expirationdate":"2018-03-15T00:00:00.000","fooditems":"Burgers: melts: hot dogs: burritos:sandwiches: fries: onion rings: drinks","latitude":"37.7488480565663","longitude":"-122.412618994655"}
,{"address":"Assessors Block 5598/Lot031","applicant":"Natan's Catering","expirationdate":"2018-03-15T00:00:00.000","fooditems":"Burgers: melts: hot dogs: burritos:sandwiches: fries: onion rings: drinks","latitude":"37.740303872806","longitude":"-122.406059743494"}
,{"address":"10 LOOMIS ST","applicant":"Park's Catering","dayshours":"Mo-Fr:8AM-9AM","expirationdate":"2018-03-15T00:00:00.000","fooditems":"Cold Truck: Hamburger: cheeseburgers: hot dogs: hot sandwiches: cold sandwiches: egg muffins: cup of noodles: corn dogs: canned soup: coffee: hot cocoa: hot tea: gatorade: juice: milk: soda: water: fruits: fruit salad: rice pudding: yogurt: candy bars: chips: cookies: donuts: granola bars: muffins","latitude":"37.7437839233827","longitude":"-122.40378882961"}
,{"address":"1051 26TH ST","applicant":"Anas Goodies Catering","dayshours":"Mo-Fr:11AM-12PM","expirationdate":"2018-03-15T00:00:00.000","fooditems":"Cold Truck: Sandwiches: Noodles:  Pre-packaged Snacks: Candy: Desserts Various Beverages","latitude":"37.7512694058781","longitude":"-122.389894366944"}
,{"address":"390 04TH ST","applicant":"Steve's Mobile Deli","dayshours":"Mo-Fr:9AM-10AM","expirationdate":"2018-03-15T00:00:00.000","fooditems":"Cold Truck: Pre-packaged sandwiches: Burgers: Hot Dogs: Muffin Sandwiches: Enchiladas: Bagels: Burritos: Salads: Snacks: Beverages","latitude":"37.7808194869995","longitude":"-122.400050152139"}
,{"address":"2660 NEWHALL ST","applicant":"Anas Goodies Catering","dayshours":"Mo-Fr:7AM-8AM","expirationdate":"2018-03-15T00:00:00.000","fooditems":"Cold Truck: Sandwiches: Noodles:  Pre-packaged Snacks: Candy: Desserts Various Beverages","latitude":"37.7272121739004","longitude":"-122.399636251644"}
,{"address":"2145 MARKET ST","applicant":"BH & MT LLC","dayshours":"Mo-Fr:10AM-11AM","expirationdate":"2018-03-15T00:00:00.000","fooditems":"Cold Truck: Breakfast: Sandwiches: Salads: Pre-Packaged Snacks: Beverages","latitude":"37.7666247727157","longitude":"-122.429511176347"}
,{"address":"131 SHOTWELL ST","applicant":"Anas Goodies Catering","dayshours":"Mo-Fr:11AM-12PM","expirationdate":"2018-03-15T00:00:00.000","fooditems":"Cold Truck: Sandwiches: Noodles:  Pre-packaged Snacks: Candy: Desserts Various Beverages","latitude":"37.7479309361129","longitude":"-122.415193153909"}
,{"address":"2525 MARIN ST","applicant":"Park's Catering","dayshours":"Mo-Fr:10AM-11AM","expirationdate":"2018-03-15T00:00:00.000","fooditems":"Cold Truck: Hamburger: cheeseburgers: hot dogs: hot sandwiches: cold sandwiches: egg muffins: cup of noodles: corn dogs: canned soup: coffee: hot cocoa: hot tea: gatorade: juice: milk: soda: water: fruits: fruit salad: rice pudding: yogurt: candy bars: chips: cookies: donuts: granola bars: muffins","latitude":"37.7476160722331","longitude":"-122.401976975724"}
,{"address":"Assessors Block 8720/Lot008","applicant":"Two G's Catering","dayshours":"Mo-Su:10AM-11AM","expirationdate":"2018-03-15T00:00:00.000","fooditems":"Cold Truck: Hot & Cold Sandwiches: Bagels: Burritos: Soups: Hot Dogs: Tacos: Pork Buns: BBQ Meat: Fruit: Various Beverages: Pasties: Pre-Packaged Snacks: Candy: Salads: Muffins: Scones: Brownies: Croissants: Energy Bars: Noodle Bowls","latitude":"37.7711580369615","longitude":"-122.386931257562"}
,{"address":"600 HARRISON ST","applicant":"Steve's Mobile Deli","dayshours":"Mo-Fr:9AM-10AM/10AM-11AM","expirationdate":"2018-03-15T00:00:00.000","fooditems":"Cold Truck: Pre-packaged sandwiches: Burgers: Hot Dogs: Muffin Sandwiches: Enchiladas: Bagels: Burritos: Salads: Snacks: Beverages","latitude":"37.7841316511211","longitude":"-122.39591339799"}
,{"address":"815 TENNESSEE ST","applicant":"Anas Goodies Catering","dayshours":"Mo-Fr:8AM-9AM","expirationdate":"2018-03-15T00:00:00.000","fooditems":"Cold Truck: Sandwiches: Noodles:  Pre-packaged Snacks: Candy: Desserts Various Beverages","latitude":"37.7615022039664","longitude":"-122.389276996081"}
,{"address":"Assessors Block 4227/Lot012","applicant":"Natan's Catering","expirationdate":"2018-03-15T00:00:00.000","fooditems":"Burgers: melts: hot dogs: burritos:sandwiches: fries: onion rings: drinks","latitude":"37.7531551067155","longitude":"-122.391174184456"}
,{"address":"Assessors Block 3905/Lot011","applicant":"Mini Mobile Food Catering","dayshours":"Mo/Mo/Mo/Mo/Mo:6AM-8AM/8AM-9AM","expirationdate":"2018-03-15T00:00:00.000","fooditems":"Cold Truck: Corn Dogs: Noodle Soups: Candy: Pre-packaged Snacks: Sandwiches: Chips: Coffee: Tea: Various Beverages","latitude":"37.7685570713121","longitude":"-122.409610236298"}
,{"address":"400 HOWARD ST","applicant":"Slider Shack, LLC.","dayshours":"Mo/Th/Fr:10AM-3PM","expirationdate":"2018-03-15T00:00:00.000","fooditems":"Sliders: Tater Tots: Beverages","latitude":"37.7891192076677","longitude":"-122.395881039335"}
,{"address":"2157 BRYANT ST","applicant":"John's Catering #5","dayshours":"Mo-Fr:12PM-1PM","expirationdate":"2018-03-15T00:00:00.000","fooditems":"Cold Truck: Soda:Chips:Candy: Cold/Hot Sandwiches: Donuts.  (Pitco Wholesale)","latitude":"37.7597962717227","longitude":"-122.409573421624"}
,{"address":"15 MARINA BLVD","applicant":"Philz Coffee Truck","dayshours":"Sa-Su:6AM-8PM","expirationdate":"2018-03-15T00:00:00.000","fooditems":"Hot coffee: iced coffee: hot chocolate: tea: pastries","latitude":"37.8045778690901","longitude":"-122.433010774343"}
,{"address":"100 SPEAR ST","applicant":"Sanguchon","dayshours":"Mo-Fr:11AM-3PM","expirationdate":"2018-03-15T00:00:00.000","fooditems":"Peruvian Food","latitude":"37.7921505484817","longitude":"-122.393999974059"}
,{"address":"560 MISSION ST","applicant":"Faith Sandwich","dayshours":"Mo-Fr:8AM-3PM","expirationdate":"2018-03-15T00:00:00.000","fooditems":"Vietnamese sandwiches: various meat rice plates & bowls: vermicelli: spring rolls: sticky rice: Vietnamese Goi: pho: noodles: coffee:  various flavored tea : various soda and juices: water","latitude":"37.788864715343","longitude":"-122.399359351363"}
,{"address":"1500 WALLACE AVE","applicant":"Liang Bai Ping","dayshours":"Mo-Fr:10AM-11AM","expirationdate":"2018-03-15T00:00:00.000","fooditems":"Cold Truck: Pre-packaged sandwiches: snacks: fruit: various beverages","latitude":"37.7267257938118","longitude":"-122.389249858027"}
,{"address":"400 PARNASSUS AVE","applicant":"DO UC US Mobile Catering","dayshours":"Mo-Fr:9AM-4PM","expirationdate":"2018-03-15T00:00:00.000","fooditems":"Cold truck: sandwiches: salads: beverages: chips: candy: cookies: coffee: tea: drinks","latitude":"37.7638640323832","longitude":"-122.458391749844"}
,{"address":"270 MASONIC AVE","applicant":"John's Catering #5","dayshours":"Mo-Fr:11AM-12PM","expirationdate":"2018-03-15T00:00:00.000","fooditems":"Cold Truck: Soda:Chips:Candy: Cold/Hot Sandwiches: Donuts.  (Pitco Wholesale)","latitude":"37.7789185898934","longitude":"-122.446748796815"}
,{"address":"3065 25TH ST","applicant":"Bay Area Mobile Catering, Inc. dba. Taqueria Angelica's","dayshours":"Su:10AM-6PM","expirationdate":"2018-03-15T00:00:00.000","fooditems":"Tacos: burritos: soda & juice","latitude":"37.7509316476402","longitude":"-122.411419966206"}
,{"address":"Assessors Block 4228/Lot080","applicant":"Mike's Catering","dayshours":"Mo/Mo/Mo/Mo/Mo:7AM-8AM/9AM-11AM;Su/Su/Su/Su/Su:9AM-2PM;Sa/Sa/Sa/Sa/Sa:9AM-3PM;Mo/Mo/Mo/Mo/Mo:11AM-1","expirationdate":"2018-03-15T00:00:00.000","fooditems":"Cold Truck: packaged sandwiches: snacks: candy: hot and cold drinks","latitude":"37.7536799789675","longitude":"-122.390414532294"}
,{"address":"50 IVY ST","applicant":"John's Catering #5","dayshours":"Mo-Fr:11AM-12PM","expirationdate":"2018-03-15T00:00:00.000","fooditems":"Cold Truck: Soda:Chips:Candy: Cold/Hot Sandwiches: Donuts.  (Pitco Wholesale)","latitude":"37.7781283797338","longitude":"-122.418652129997"}
,{"address":"700 25TH ST","applicant":"F & C Catering","dayshours":"Mo-Fr:12PM-1PM","expirationdate":"2018-03-15T00:00:00.000","fooditems":"Cold Truck: Hot/Cold Sandwiches: Water: Soda: Juice: Snacks: Milk: Candies: Canned Food: Soups: Cup of Noodles: Fruit: Salad","latitude":"37.7533808099749","longitude":"-122.386367685857"}
,{"address":"560 VALENCIA ST","applicant":"The Chai Cart","dayshours":"Sa-Su:9AM-4PM","expirationdate":"2018-03-15T00:00:00.000","fooditems":"Hot Indian Chai","latitude":"37.7638580813603","longitude":"-122.422082620993"}
,{"address":"Assessors Block 4241/Lot002","applicant":"Natan's Catering","expirationdate":"2018-03-15T00:00:00.000","fooditems":"Burgers: melts: hot dogs: burritos:sandwiches: fries: onion rings: drinks","latitude":"37.7533400011811","longitude":"-122.384128384237"}
,{"address":"151 MENDELL ST","applicant":"Natan's Catering","expirationdate":"2018-03-15T00:00:00.000","fooditems":"Burgers: melts: hot dogs: burritos:sandwiches: fries: onion rings: drinks","latitude":"37.7428202346759","longitude":"-122.382847355518"}
,{"address":"26 THE EMBARCADERO","applicant":"Steve's Mobile Deli","dayshours":"Mo-Fr:7AM-8AM","expirationdate":"2018-03-15T00:00:00.000","fooditems":"Cold Truck: Pre-packaged sandwiches: Burgers: Hot Dogs: Muffin Sandwiches: Enchiladas: Bagels: Burritos: Salads: Snacks: Beverages","latitude":"37.7941916764752","longitude":"-122.393853704254"}
,{"address":"300 HOWARD ST","applicant":"John's Catering #5","dayshours":"Mo-Fr:6AM-7AM/12PM-1PM","expirationdate":"2018-03-15T00:00:00.000","fooditems":"Cold Truck: Soda:Chips:Candy: Cold/Hot Sandwiches: Donuts.  (Pitco Wholesale)","latitude":"37.7895693138966","longitude":"-122.395129390521"}
,{"address":"1271 CAPITOL AVE","applicant":"San Pancho's Tacos","dayshours":"Su:7AM-7PM","expirationdate":"2018-03-15T00:00:00.000","fooditems":"Tacos: Burritos: Quesadillas: Tortas: Nachos: Hot Dogs:Soda: Water: Fruit Drinks","latitude":"37.7242977785276","longitude":"-122.459377309548"}
,{"address":"3335 17TH ST","applicant":"Natan's Catering","expirationdate":"2018-03-15T00:00:00.000","fooditems":"Burgers: melts: hot dogs: burritos:sandwiches: fries: onion rings: drinks","latitude":"37.7631563932265","longitude":"-122.420322231526"}
,{"address":"2854 GREEN ST","applicant":"D & T Catering","dayshours":"Mo-Fr:8AM-9AM","expirationdate":"2018-03-15T00:00:00.000","fooditems":"Cold Truck: Pre-packaged sandwiches: Chicken Bake: Canned Soup: Chili Dog: Corn Dog: Cup of Noodles: Egg Muffins: Hamburgers: Cheeseburgers: Hot Dog: Hot sandwiches: quesadillas: Beverages: Flan: Fruits: Yogurt: Candy: Cookies: Chips: Donuts: Snacks","latitude":"37.795051430826","longitude":"-122.446134422674"}
,{"address":"Assessors Block 4046/Lot001","applicant":"Natan's Catering","expirationdate":"2018-03-15T00:00:00.000","fooditems":"Burgers: melts: hot dogs: burritos:sandwiches: fries: onion rings: drinks","latitude":"37.7620084580302","longitude":"-122.385441811568"}
,{"address":"950 BRYANT ST","applicant":"Two G's Catering","dayshours":"Mo-Fr:8AM-9AM","expirationdate":"2018-03-15T00:00:00.000","fooditems":"Cold Truck: Hot & Cold Sandwiches: Bagels: Burritos: Soups: Hot Dogs: Tacos: Pork Buns: BBQ Meat: Fruit: Various Beverages: Pasties: Pre-Packaged Snacks: Candy: Salads: Muffins: Scones: Brownies: Croissants: Energy Bars: Noodle Bowls","latitude":"37.773610979516","longitude":"-122.405958407112"}
,{"address":"435 23RD ST","applicant":"Natan's Catering","expirationdate":"2018-03-15T00:00:00.000","fooditems":"Burgers: melts: hot dogs: burritos:sandwiches: fries: onion rings: drinks","latitude":"37.7550307267667","longitude":"-122.384530734223"}
,{"address":"201 ALABAMA ST","applicant":"Quan Catering","dayshours":"Mo-Fr:8AM-9AM","expirationdate":"2018-03-15T00:00:00.000","fooditems":"Cold Truck: Soft drinks: cup cakes: potato chips: cookies: gum: sandwiches (hot & cold): peanuts: muffins: coff (hot & cold): water: juice: yoplait: milk: orange juice: sunflower seeds: can foods: burritos: buscuits: chimichangas: rice krispies","latitude":"37.767797843619","longitude":"-122.412096318861"}
,{"address":"3055 23RD ST","applicant":"El Gallo Jiro","dayshours":"Mo/Tu/We/Th/Fr:10AM-6PM","expirationdate":"2018-03-15T00:00:00.000","fooditems":"Burritos: Giros: Tortas: Quesadillas: Tacos & Various Beverages","latitude":"37.7539277357265","longitude":"-122.413323129618"}
,{"address":"1477 GROVE ST","applicant":"BH & MT LLC","dayshours":"Mo-Fr:10AM-11AM","expirationdate":"2018-03-15T00:00:00.000","fooditems":"Cold Truck: Breakfast: Sandwiches: Salads: Pre-Packaged Snacks: Beverages","latitude":"37.7752901423195","longitude":"-122.440731162111"}
,{"address":"1440 BANCROFT AVE","applicant":"Liang Bai Ping","dayshours":"Mo-Fr:9AM-10AM/12PM-1PM","expirationdate":"2018-03-15T00:00:00.000","fooditems":"Cold Truck: Pre-packaged sandwiches: snacks: fruit: various beverages","latitude":"37.7241728927613","longitude":"-122.389735429011"}
,{"address":"208 PENNSYLVANIA AVE","applicant":"Anas Goodies Catering","dayshours":"Mo-Fr:8AM-9AM","expirationdate":"2018-03-15T00:00:00.000","fooditems":"Cold Truck: Sandwiches: Noodles:  Pre-packaged Snacks: Candy: Desserts Various Beverages","latitude":"37.7634629599066","longitude":"-122.394012947377"}
,{"address":"535 MISSION BAY BLVD SOUTH","applicant":"SF Cart Project","dayshours":"Mo-Fr:10AM-3PM","expirationdate":"2018-03-15T00:00:00.000","fooditems":"7 Multiple Trucks on rotation (1 on Mission Bay Blvd South & 6 on 4th St).   Serving everything but hot dogs","latitude":"37.7691244121681","longitude":"-122.391474911246"}
,{"address":"2616 UNION ST","applicant":"D & T Catering","dayshours":"Mo-Fr:8AM-9AM","expirationdate":"2018-03-15T00:00:00.000","fooditems":"Cold Truck: Pre-packaged sandwiches: Chicken Bake: Canned Soup: Chili Dog: Corn Dog: Cup of Noodles: Egg Muffins: Hamburgers: Cheeseburgers: Hot Dog: Hot sandwiches: quesadillas: Beverages: Flan: Fruits: Yogurt: Candy: Cookies: Chips: Donuts: Snacks","latitude":"37.7964799968164","longitude":"-122.442530024725"}
,{"address":"1275 EVANS AVE","applicant":"Tacos Rodriguez","dayshours":"Mo-Su:8AM-8PM","expirationdate":"2018-03-15T00:00:00.000","fooditems":"Tacos: burritos: quesadillas: soda & water","latitude":"37.739111429745","longitude":"-122.382464971136"}
,{"address":"100 POST ST","applicant":"San Francisco Street Foods, Inc.","dayshours":"Mo-Su:6AM-12AM","expirationdate":"2018-03-15T00:00:00.000","fooditems":"Hot dogs: condiments: soft pretzels: soft drinks: coffee: cold beverages: pastries: bakery goods: cookies: ice cream: candy: soups: churros: chestnuts: nuts: fresh fruit: fruit juices: desserts: potato chips and popcorn.","latitude":"37.7892332828961","longitude":"-122.40557905421"}
,{"address":"1575 BURKE AVE","applicant":"Park's Catering","dayshours":"Mo-Fr:7AM-8AM/9AM-10AM/12PM-1PM","expirationdate":"2018-03-15T00:00:00.000","fooditems":"Cold Truck: Hamburger: cheeseburgers: hot dogs: hot sandwiches: cold sandwiches: egg muffins: cup of noodles: corn dogs: canned soup: coffee: hot cocoa: hot tea: gatorade: juice: milk: soda: water: fruits: fruit salad: rice pudding: yogurt: candy bars: chips: cookies: donuts: granola bars: muffins","latitude":"37.7441784473757","longitude":"-122.386715929759"}
,{"address":"3839 WASHINGTON ST","applicant":"D & T Catering","dayshours":"Mo-Fr:10AM-11AM","expirationdate":"2018-03-15T00:00:00.000","fooditems":"Cold Truck: Pre-packaged sandwiches: Chicken Bake: Canned Soup: Chili Dog: Corn Dog: Cup of Noodles: Egg Muffins: Hamburgers: Cheeseburgers: Hot Dog: Hot sandwiches: quesadillas: Beverages: Flan: Fruits: Yogurt: Candy: Cookies: Chips: Donuts: Snacks","latitude":"37.788583655156","longitude":"-122.456059894366"}
,{"address":"790 TENNESSEE ST","applicant":"Anas Goodies Catering","dayshours":"Mo-Fr:8AM-9AM","expirationdate":"2018-03-15T00:00:00.000","fooditems":"Cold Truck: Sandwiches: Noodles:  Pre-packaged Snacks: Candy: Desserts Various Beverages","latitude":"37.7618523975041","longitude":"-122.38993209325"}
,{"address":"954 MARKET ST","applicant":"Yummy Hot Dogs","dayshours":"Tu/Th/Sa:10AM-7PM","expirationdate":"2018-03-15T00:00:00.000","fooditems":"Hot dogs: pretzels: chips: juices and cold drinks","latitude":"37.7831754207336","longitude":"-122.409568315547"}
,{"address":"2190 CESAR CHAVEZ ST","applicant":"Quan Catering","dayshours":"Mo-Fr:8AM-9AM","expirationdate":"2018-03-15T00:00:00.000","fooditems":"Cold Truck: Soft drinks: cup cakes: potato chips: cookies: gum: sandwiches (hot & cold): peanuts: muffins: coff (hot & cold): water: juice: yoplait: milk: orange juice: sunflower seeds: can foods: burritos: buscuits: chimichangas: rice krispies","latitude":"37.7502368847791","longitude":"-122.397818031719"}
,{"address":"640 TEXAS ST","applicant":"Anas Goodies Catering","dayshours":"Mo-Fr:9AM-10AM","expirationdate":"2018-03-15T00:00:00.000","fooditems":"Cold Truck: Sandwiches: Noodles:  Pre-packaged Snacks: Candy: Desserts Various Beverages","latitude":"37.7579170566901","longitude":"-122.39547585249"}
,{"address":"773 MARKET ST","applicant":"Kettle Corn Star","dayshours":"Mo-Su:10AM-6PM","expirationdate":"2018-03-15T00:00:00.000","fooditems":"Kettle Corn: Funnel Cakes: Lemonade: Beverages: Flan: Hot Dogs: Falafel: Hot and Cold Sandwiches: French Fries: Baklava and Pastries","latitude":"37.7853956394405","longitude":"-122.40439104283"}
,{"address":"556 SUTTER ST","applicant":"Philz Coffee Truck","dayshours":"Th/Fr/Sa:6AM-4PM","expirationdate":"2018-03-15T00:00:00.000","fooditems":"Hot coffee: iced coffee: hot chocolate: tea: pastries","latitude":"37.7893854510391","longitude":"-122.409591260467"}
,{"address":"Assessors Block 3720/Lot001","applicant":"Liang Bai Ping","dayshours":"Mo/Mo/Mo/Mo/Mo:5AM-6AM/11AM-12PM","expirationdate":"2018-03-15T00:00:00.000","fooditems":"Cold Truck: Pre-packaged sandwiches: snacks: fruit: various beverages","latitude":"37.789691367587","longitude":"-122.396595637084"}
,{"address":"355 FREMONT ST","applicant":"Mini Mobile Food Catering","dayshours":"Mo-Fr:9AM-10AM/11AM-12PM","expirationdate":"2018-03-15T00:00:00.000","fooditems":"Cold Truck: Corn Dogs: Noodle Soups: Candy: Pre-packaged Snacks: Sandwiches: Chips: Coffee: Tea: Various Beverages","latitude":"37.7873224193199","longitude":"-122.392223706383"}
,{"address":"3305 03RD ST","applicant":"Anas Goodies Catering","dayshours":"Mo-Fr:11AM-12PM","expirationdate":"2018-03-15T00:00:00.000","fooditems":"Cold Truck: Sandwiches: Noodles:  Pre-packaged Snacks: Candy: Desserts Various Beverages","latitude":"37.7438311721327","longitude":"-122.377797368962"}
,{"address":"201 FOLSOM ST","applicant":"Liang Bai Ping","dayshours":"Mo-Fr:7AM-8AM","expirationdate":"2018-03-15T00:00:00.000","fooditems":"Cold Truck: Pre-packaged sandwiches: snacks: fruit: various beverages","latitude":"37.7881452832928","longitude":"-122.391181920263"}
,{"address":"235 BERRY ST","applicant":"Two G's Catering","dayshours":"Mo-Fr:9AM-10AM/11AM-12PM","expirationdate":"2018-03-15T00:00:00.000","fooditems":"Cold Truck: Hot & Cold Sandwiches: Bagels: Burritos: Soups: Hot Dogs: Tacos: Pork Buns: BBQ Meat: Fruit: Various Beverages: Pasties: Pre-Packaged Snacks: Candy: Salads: Muffins: Scones: Brownies: Croissants: Energy Bars: Noodle Bowls","latitude":"37.7747030474687","longitude":"-122.39408939657"}
,{"address":"Assessors Block 8722/Lot001","applicant":"Natan's Catering","expirationdate":"2018-03-15T00:00:00.000","fooditems":"Burgers: melts: hot dogs: burritos:sandwiches: fries: onion rings: drinks","latitude":"37.7679955456856","longitude":"-122.387549426547"}
,{"address":"1140 07TH ST","applicant":"Natan's Catering","expirationdate":"2018-03-15T00:00:00.000","fooditems":"Burgers: melts: hot dogs: burritos:sandwiches: fries: onion rings: drinks","latitude":"37.7682493867935","longitude":"-122.398430650214"}
,{"address":"1219 07TH AVE","applicant":"Linda's Catering","dayshours":"Sa-Su:9AM-5PM","expirationdate":"2018-03-15T00:00:00.000","fooditems":"Hot Dogs: Hamburgers: Nachos: Steaks: Pastas: Asian Dishes: Tri-Tip Sandwiches: Sodas & Water","latitude":"37.7654969876192","longitude":"-122.464597619571"}
